fips,state_name,county_name,lat,long,org_type,variable_name
6057,California,Nevada County,39.3202598,-120.15067,Food Hub,location_food_hub
35045,New Mexico,San Juan County,36.7737916,-108.16738,Food Hub,location_food_hub
37099,North Carolina,Jackson County,35.3224064,-83.157802,Food Hub,location_food_hub
19191,Iowa,Winneshiek County,43.2981014,-91.787872,Food Hub,location_food_hub
6075,California,San Francisco County,37.7505071,-122.38911,Food Hub,location_food_hub
20091,Kansas,Johnson County,39.0407367,-94.683248,Food Hub,location_food_hub
46099,South Dakota,Minnehaha County,43.6163648,-96.711045,Food Hub,location_food_hub
48029,Texas,Bexar County,29.5427319,-98.671307,Food Hub,location_food_hub
8031,Colorado,Denver County,39.7897946,-104.84833,Food Hub,location_food_hub
30111,Montana,Yellowstone County,45.7600099,-108.57009,Food Hub,location_food_hub
15009,Hawaii,Maui County,20.8865404,-156.45942,Food Hub,location_food_hub
6073,California,San Diego County,32.7410926,-117.10121,Food Hub,location_food_hub
42027,Pennsylvania,Centre County,40.8243985,-77.81247,Food Hub,location_food_hub
4013,Arizona,Maricopa County,33.5043289,-112.46681,Food Hub,location_food_hub
16001,Idaho,Ada County,43.5760691,-116.24071,Food Hub,location_food_hub
15007,Hawaii,Kauai County,21.980169,-159.3675,Food Hub,location_food_hub
25011,Massachusetts,Franklin County,42.4723929,-72.6128069,Food Hub,location_food_hub
37183,North Carolina,Wake County,35.7310589,-78.661271,Food Hub,location_food_hub
37189,North Carolina,Watauga County,36.2204478,-81.688715,Food Hub,location_food_hub
37031,North Carolina,Carteret County,34.7717199,-76.8497311,Food Hub,location_food_hub
24023,Maryland,Garrett County,39.4078747,-79.406711,Food Hub,location_food_hub
55033,Wisconsin,Dunn County,44.8238288,-91.688474,Food Hub,location_food_hub
8003,Colorado,Alamosa County,37.6529292,-105.87582,Food Hub,location_food_hub
17085,Illinois,Jo Daviess County,42.404443,-90.31353,Farmers Market,location_farmers_markets
27053,Minnesota,Hennepin County,44.997274,-93.473419,Farmers Market,location_farmers_markets
37063,North Carolina,Durham County,36.000559,-78.901856,Farmers Market,location_farmers_markets
36055,New York,Monroe County,43.212229,-77.452948,Farmers Market,location_farmers_markets
55087,Wisconsin,Outagamie County,44.26201,-88.40703,Farmers Market,location_farmers_markets
48021,Texas,Bastrop County,30.111777,-97.311627,Farmers Market,location_farmers_markets
39025,Ohio,Clermont County,39.266388,-84.259924,Farmers Market,location_farmers_markets
36045,New York,Jefferson County,44.331171,-75.916118,Farmers Market,location_farmers_markets
36029,New York,Erie County,42.98032,-78.58945,Farmers Market,location_farmers_markets
34025,New Jersey,Monmouth County,40.404837,-73.994358,Farmers Market,location_farmers_markets
48491,Texas,Williamson County,30.469036,-97.806683,Farmers Market,location_farmers_markets
51019,Virginia,Bedford County,37.36437,-79.285443,Farmers Market,location_farmers_markets
55087,Wisconsin,Outagamie County,44.503625,-88.202341,Farmers Market,location_farmers_markets
45051,South Carolina,Horry County,33.827655,-78.683173,Farmers Market,location_farmers_markets
5031,Arkansas,Craighead County,35.840771,-90.667327,Farmers Market,location_farmers_markets
41051,Oregon,Multnomah County,45.499865,-122.6877,Farmers Market,location_farmers_markets
19165,Iowa,Shelby County,41.645926,-95.338882,Farmers Market,location_farmers_markets
9003,Connecticut,Hartford County,41.810819,-72.923264,Farmers Market,location_farmers_markets
27007,Minnesota,Beltrami County,47.469337,-94.880609,Farmers Market,location_farmers_markets
30093,Montana,Silver Bow County,46.01269,-112.5364,Farmers Market,location_farmers_markets
30043,Montana,Jefferson County,46.239153,-112.11759,Farmers Market,location_farmers_markets
6095,California,Solano County,38.046215,-122.16118,Farmers Market,location_farmers_markets
34029,New Jersey,Ocean County,39.753903,-74.221654,Farmers Market,location_farmers_markets
26057,Michigan,Gratiot County,43.292319,-84.598559,Farmers Market,location_farmers_markets
55025,Wisconsin,Dane County,43.076159,-89.470061,Farmers Market,location_farmers_markets
19137,Iowa,Montgomery County,41.009641,-95.228044,Farmers Market,location_farmers_markets
51083,Virginia,Halifax County,36.76317,-78.92836,Farmers Market,location_farmers_markets
17111,Illinois,McHenry County,42.243752,-88.31701,Farmers Market,location_farmers_markets
37147,North Carolina,Pitt County,35.611005,-77.373338,Farmers Market,location_farmers_markets
36001,New York,Albany County,42.649656,-73.930027,Farmers Market,location_farmers_markets
19005,Iowa,Allamakee County,43.260191,-91.472878,Farmers Market,location_farmers_markets
36065,New York,Oneida County,43.096382,-75.225983,Farmers Market,location_farmers_markets
36009,New York,Cattaraugus County,42.164734,-78.741263,Farmers Market,location_farmers_markets
36003,New York,Allegany County,42.234077,-78.053508,Farmers Market,location_farmers_markets
6037,California,Los Angeles County,34.095598,-117.71641,Farmers Market,location_farmers_markets
39143,Ohio,Sandusky County,41.345408,-83.113549,Farmers Market,location_farmers_markets
39035,Ohio,Cuyahoga County,41.484539,-81.804266,Farmers Market,location_farmers_markets
26089,Michigan,Leelanau County,45.129668,-85.614175,Farmers Market,location_farmers_markets
26089,Michigan,Leelanau County,44.980186,-85.647075,Farmers Market,location_farmers_markets
26089,Michigan,Leelanau County,44.897978,-85.986905,Farmers Market,location_farmers_markets
26089,Michigan,Leelanau County,45.022857,-85.759459,Farmers Market,location_farmers_markets
26089,Michigan,Leelanau County,44.811224,-86.063056,Farmers Market,location_farmers_markets
51003,Virginia,Albemarle County,38.1087,-78.44106,Farmers Market,location_farmers_markets
24005,Maryland,Baltimore County,39.316055,-76.764414,Farmers Market,location_farmers_markets
26145,Michigan,Saginaw County,43.344313,-83.738212,Farmers Market,location_farmers_markets
6081,California,San Mateo County,37.450822,-122.1841,Farmers Market,location_farmers_markets
25023,Massachusetts,Plymouth County,42.098148,-70.717317,Farmers Market,location_farmers_markets
55133,Wisconsin,Waukesha County,43.013121,-88.472514,Farmers Market,location_farmers_markets
37127,North Carolina,Nash County,35.955256,-77.802729,Farmers Market,location_farmers_markets
2220,Alaska,Sitka City and Borough,57.051519,-135.32674,Farmers Market,location_farmers_markets
18141,Indiana,St. Joseph County,41.65516,-86.35873,Farmers Market,location_farmers_markets
53053,Washington,Pierce County,47.191241,-122.29243,Farmers Market,location_farmers_markets
26161,Michigan,Washtenaw County,42.339503,-83.889459,Farmers Market,location_farmers_markets
17031,Illinois,Cook County,42.1314024,-87.828657,Farmers Market,location_farmers_markets
6073,California,San Diego County,32.987194,-117.2692,Farmers Market,location_farmers_markets
41005,Oregon,Clackamas County,45.417855,-122.66477,Farmers Market,location_farmers_markets
55107,Wisconsin,Rusk County,45.464998,-91.09924,Farmers Market,location_farmers_markets
8003,Colorado,Alamosa County,37.467321,-105.865,Farmers Market,location_farmers_markets
24033,Maryland,Prince George's County,38.962979,-76.935311,Farmers Market,location_farmers_markets
37077,North Carolina,Granville County,36.3148277,-78.586616,Farmers Market,location_farmers_markets
8069,Colorado,Larimer County,40.387479,-105.07865,Farmers Market,location_farmers_markets
20045,Kansas,Douglas County,38.950747,-95.235146,Farmers Market,location_farmers_markets
26067,Michigan,Ionia County,42.9814841,-85.067726,Farmers Market,location_farmers_markets
25017,Massachusetts,Middlesex County,42.363071,-71.369892,Farmers Market,location_farmers_markets
45019,South Carolina,Charleston County,32.790718,-79.8734,Farmers Market,location_farmers_markets
50017,Vermont,Orange County,43.98878,-72.44747,Farmers Market,location_farmers_markets
38101,North Dakota,Ward County,48.233564,-101.29559,Farmers Market,location_farmers_markets
45013,South Carolina,Beaufort County,32.234811,-80.862568,Farmers Market,location_farmers_markets
17043,Illinois,DuPage County,41.8036543,-87.928694,Farmers Market,location_farmers_markets
26087,Michigan,Lapeer County,43.02429,-83.074322,Farmers Market,location_farmers_markets
39009,Ohio,Athens County,39.336038,-82.056622,Farmers Market,location_farmers_markets
19061,Iowa,Dubuque County,42.504521,-90.667851,Farmers Market,location_farmers_markets
51775,Virginia,Salem city,37.292997,-80.058606,Farmers Market,location_farmers_markets
41057,Oregon,Tillamook County,45.719007,-123.89424,Farmers Market,location_farmers_markets
35001,New Mexico,Bernalillo County,35.158683,-106.65491,Farmers Market,location_farmers_markets
17195,Illinois,Whiteside County,41.787255,-89.697172,Farmers Market,location_farmers_markets
17015,Illinois,Carroll County,42.101295,-89.978008,Farmers Market,location_farmers_markets
42125,Pennsylvania,Washington County,40.169,-80.245,Farmers Market,location_farmers_markets
55073,Wisconsin,Marathon County,44.797421,-89.708626,Farmers Market,location_farmers_markets
30017,Montana,Custer County,46.408215,-105.84009,Farmers Market,location_farmers_markets
25001,Massachusetts,Barnstable County,41.676615,-69.962249,Farmers Market,location_farmers_markets
53057,Washington,Skagit County,48.516974,-122.60918,Farmers Market,location_farmers_markets
8037,Colorado,Eagle County,39.58839,-106.4315,Farmers Market,location_farmers_markets
28033,Mississippi,DeSoto County,34.823026,-89.994281,Farmers Market,location_farmers_markets
50025,Vermont,Windham County,43.084256,-72.711717,Farmers Market,location_farmers_markets
16019,Idaho,Bonneville County,43.494592,-112.0425,Farmers Market,location_farmers_markets
15007,Hawaii,Kauai County,22.201731,-159.4992,Farmers Market,location_farmers_markets
27123,Minnesota,Ramsey County,45.084125,-93.009953,Farmers Market,location_farmers_markets
26115,Michigan,Monroe County,41.91965,-83.39378,Farmers Market,location_farmers_markets
12086,Florida,Miami-Dade County,25.836451,-80.183684,Farmers Market,location_farmers_markets
35039,New Mexico,Rio Arriba County,36.003598,-106.0658,Farmers Market,location_farmers_markets
9009,Connecticut,New Haven County,41.226598,-73.062096,Farmers Market,location_farmers_markets
27053,Minnesota,Hennepin County,44.995288,-93.262339,Farmers Market,location_farmers_markets
27021,Minnesota,Cass County,47.100539,-94.584857,Farmers Market,location_farmers_markets
37081,North Carolina,Guilford County,36.087691,-79.992657,Farmers Market,location_farmers_markets
36111,New York,Ulster County,42.080345,-73.946818,Farmers Market,location_farmers_markets
2122,Alaska,Kenai Peninsula Borough,59.638109,-151.51234,Farmers Market,location_farmers_markets
42017,Pennsylvania,Bucks County,40.336871,-75.106815,Farmers Market,location_farmers_markets
12053,Florida,Hernando County,28.481294,-82.441514,Farmers Market,location_farmers_markets
37035,North Carolina,Catawba County,35.712066,-81.269507,Farmers Market,location_farmers_markets
29033,Missouri,Carroll County,39.358097,-93.496941,Farmers Market,location_farmers_markets
25017,Massachusetts,Middlesex County,42.229299,-71.51777,Farmers Market,location_farmers_markets
55017,Wisconsin,Chippewa County,44.934888,-91.389337,Farmers Market,location_farmers_markets
51041,Virginia,Chesterfield County,37.376728,-77.504419,Farmers Market,location_farmers_markets
15001,Hawaii,Hawaii County,19.525784,-155.92365,Farmers Market,location_farmers_markets
18073,Indiana,Jasper County,40.9356403,-87.150106,Farmers Market,location_farmers_markets
33003,New Hampshire,Carroll County,43.580593,-71.202747,Farmers Market,location_farmers_markets
26163,Michigan,Wayne County,42.254801,-83.208989,Farmers Market,location_farmers_markets
17031,Illinois,Cook County,41.562264,-87.666231,Farmers Market,location_farmers_markets
45051,South Carolina,Horry County,33.6069616,-78.974364,Farmers Market,location_farmers_markets
28089,Mississippi,Madison County,32.460885,-90.114634,Farmers Market,location_farmers_markets
25011,Massachusetts,Franklin County,42.606069,-72.559612,Farmers Market,location_farmers_markets
25017,Massachusetts,Middlesex County,42.260027,-71.461538,Farmers Market,location_farmers_markets
42095,Pennsylvania,Northampton County,40.689778,-75.206274,Farmers Market,location_farmers_markets
36061,New York,New York County,40.746359,-74.000805,Farmers Market,location_farmers_markets
36047,New York,Kings County,40.672303,-73.983867,Farmers Market,location_farmers_markets
55105,Wisconsin,Rock County,42.681669,-89.023298,Farmers Market,location_farmers_markets
31047,Nebraska,Dawson County,40.8606228,-99.990115,Farmers Market,location_farmers_markets
31157,Nebraska,Scotts Bluff County,41.864268,-103.66253,Farmers Market,location_farmers_markets
47159,Tennessee,Smith County,36.2233523,-85.946185,Farmers Market,location_farmers_markets
47149,Tennessee,Rutherford County,35.852209,-86.416062,Farmers Market,location_farmers_markets
53033,Washington,King County,47.637172,-122.3576,Farmers Market,location_farmers_markets
13021,Georgia,Bibb County,32.833797,-83.646551,Farmers Market,location_farmers_markets
27157,Minnesota,Wabasha County,44.384124,-92.032633,Farmers Market,location_farmers_markets
55079,Wisconsin,Milwaukee County,42.9107287,-87.862688,Farmers Market,location_farmers_markets
13165,Georgia,Jenkins County,32.802685,-81.936127,Farmers Market,location_farmers_markets
51191,Virginia,Washington County,36.708863,-81.97716,Farmers Market,location_farmers_markets
19193,Iowa,Woodbury County,42.490552,-96.408445,Farmers Market,location_farmers_markets
42061,Pennsylvania,Huntingdon County,40.485653,-78.01723,Farmers Market,location_farmers_markets
9005,Connecticut,Litchfield County,41.990739,-73.197873,Farmers Market,location_farmers_markets
37169,North Carolina,Stokes County,36.276367,-80.341178,Farmers Market,location_farmers_markets
12086,Florida,Miami-Dade County,25.669124,-80.285895,Farmers Market,location_farmers_markets
53065,Washington,Stevens County,48.543279,-117.90522,Farmers Market,location_farmers_markets
37019,North Carolina,Brunswick County,33.975058,-78.386035,Farmers Market,location_farmers_markets
26087,Michigan,Lapeer County,43.053482,-83.309076,Farmers Market,location_farmers_markets
36119,New York,Westchester County,40.933512,-73.760008,Farmers Market,location_farmers_markets
36119,New York,Westchester County,40.93357,-73.791017,Farmers Market,location_farmers_markets
36119,New York,Westchester County,40.983895,-73.686043,Farmers Market,location_farmers_markets
36047,New York,Kings County,40.724358,-73.943291,Farmers Market,location_farmers_markets
36061,New York,New York County,40.801254,-73.959645,Farmers Market,location_farmers_markets
36081,New York,Queens County,40.751776,-73.826548,Farmers Market,location_farmers_markets
12086,Florida,Miami-Dade County,25.704072,-80.291066,Farmers Market,location_farmers_markets
17037,Illinois,DeKalb County,41.931127,-88.752032,Farmers Market,location_farmers_markets
47037,Tennessee,Davidson County,36.172268,-86.764338,Farmers Market,location_farmers_markets
23031,Maine,York County,43.090021,-70.736542,Farmers Market,location_farmers_markets
47009,Tennessee,Blount County,35.756987,-83.969504,Farmers Market,location_farmers_markets
19169,Iowa,Story County,42.025222,-93.614943,Farmers Market,location_farmers_markets
18157,Indiana,Tippecanoe County,40.461469,-86.915836,Farmers Market,location_farmers_markets
13299,Georgia,Ware County,31.235752,-82.381851,Farmers Market,location_farmers_markets
41063,Oregon,Wallowa County,45.570355,-117.52864,Farmers Market,location_farmers_markets
13067,Georgia,Cobb County,33.826085,-84.575384,Farmers Market,location_farmers_markets
54079,West Virginia,Putnam County,38.441892,-81.99554,Farmers Market,location_farmers_markets
37119,North Carolina,Mecklenburg County,35.1867102,-80.908718,Farmers Market,location_farmers_markets
48167,Texas,Galveston County,29.520767,-95.191302,Farmers Market,location_farmers_markets
42003,Pennsylvania,Allegheny County,40.459005,-79.944435,Farmers Market,location_farmers_markets
20157,Kansas,Republic County,39.822988,-97.630924,Farmers Market,location_farmers_markets
6037,California,Los Angeles County,33.779336,-118.37372,Farmers Market,location_farmers_markets
45051,South Carolina,Horry County,33.880648,-78.640489,Farmers Market,location_farmers_markets
45051,South Carolina,Horry County,33.833331,-79.044831,Farmers Market,location_farmers_markets
45051,South Carolina,Horry County,33.6699343,-78.939009,Farmers Market,location_farmers_markets
45043,South Carolina,Georgetown County,33.3662089,-79.281782,Farmers Market,location_farmers_markets
25027,Massachusetts,Worcester County,42.488744,-72.186669,Farmers Market,location_farmers_markets
23019,Maine,Penobscot County,44.8039587,-68.771649,Farmers Market,location_farmers_markets
25023,Massachusetts,Plymouth County,41.888852,-70.769182,Farmers Market,location_farmers_markets
51800,Virginia,Suffolk city,36.737572,-76.581989,Farmers Market,location_farmers_markets
30023,Montana,Deer Lodge County,46.099059,-113.1391,Farmers Market,location_farmers_markets
53061,Washington,Snohomish County,47.811264,-122.37678,Farmers Market,location_farmers_markets
55079,Wisconsin,Milwaukee County,43.091905,-87.898448,Farmers Market,location_farmers_markets
26005,Michigan,Allegan County,42.452003,-85.650721,Farmers Market,location_farmers_markets
55045,Wisconsin,Green County,42.601889,-89.639224,Farmers Market,location_farmers_markets
53033,Washington,King County,47.447921,-122.46075,Farmers Market,location_farmers_markets
42095,Pennsylvania,Northampton County,40.6098058,-75.378402,Farmers Market,location_farmers_markets
37023,North Carolina,Burke County,35.7466269,-81.688488,Farmers Market,location_farmers_markets
30057,Montana,Madison County,45.542747,-112.33373,Farmers Market,location_farmers_markets
19093,Iowa,Ida County,42.345173,-95.470874,Farmers Market,location_farmers_markets
13121,Georgia,Fulton County,33.679488,-84.442141,Farmers Market,location_farmers_markets
2020,Alaska,Anchorage Municipality,61.208991,-149.73118,Farmers Market,location_farmers_markets
6111,California,Ventura County,34.19798,-119.18027,Farmers Market,location_farmers_markets
37041,North Carolina,Chowan County,36.062086,-76.607401,Farmers Market,location_farmers_markets
36119,New York,Westchester County,41.160793,-73.86341,Farmers Market,location_farmers_markets
36119,New York,Westchester County,40.944797,-73.730404,Farmers Market,location_farmers_markets
53033,Washington,King County,47.367729,-122.02336,Farmers Market,location_farmers_markets
17031,Illinois,Cook County,41.943816,-87.664233,Farmers Market,location_farmers_markets
51197,Virginia,Wythe County,36.9486397,-81.083367,Farmers Market,location_farmers_markets
51770,Virginia,Roanoke city,37.265053,-79.978064,Farmers Market,location_farmers_markets
13059,Georgia,Clarke County,33.9644564,-83.412131,Farmers Market,location_farmers_markets
13059,Georgia,Clarke County,33.959088,-83.380247,Farmers Market,location_farmers_markets
24510,Maryland,Baltimore city,39.273864,-76.601326,Farmers Market,location_farmers_markets
9011,Connecticut,New London County,41.635781,-72.212877,Farmers Market,location_farmers_markets
18049,Indiana,Fulton County,41.0647645,-86.215833,Farmers Market,location_farmers_markets
19163,Iowa,Scott County,41.562863,-90.571154,Farmers Market,location_farmers_markets
33015,New Hampshire,Rockingham County,43.0168516,-71.000312,Farmers Market,location_farmers_markets
47119,Tennessee,Maury County,35.6187845,-87.03048,Farmers Market,location_farmers_markets
19179,Iowa,Wapello County,41.017422,-92.425855,Farmers Market,location_farmers_markets
50005,Vermont,Caledonia County,44.417224,-72.016831,Farmers Market,location_farmers_markets
39133,Ohio,Portage County,41.150692,-81.360033,Farmers Market,location_farmers_markets
19025,Iowa,Calhoun County,42.527104,-94.539507,Farmers Market,location_farmers_markets
18109,Indiana,Morgan County,39.423392,-86.428695,Farmers Market,location_farmers_markets
18109,Indiana,Morgan County,39.612806,-86.379609,Farmers Market,location_farmers_markets
38053,North Dakota,McKenzie County,47.797315,-103.27139,Farmers Market,location_farmers_markets
38009,North Dakota,Bottineau County,48.8262788,-100.44594,Farmers Market,location_farmers_markets
47045,Tennessee,Dyer County,36.030081,-89.389549,Farmers Market,location_farmers_markets
22045,Louisiana,Iberia Parish,29.941659,-91.982453,Farmers Market,location_farmers_markets
26163,Michigan,Wayne County,42.362596,-83.331995,Farmers Market,location_farmers_markets
39081,Ohio,Jefferson County,40.377613,-80.669759,Farmers Market,location_farmers_markets
50015,Vermont,Lamoille County,44.473531,-72.712004,Farmers Market,location_farmers_markets
50005,Vermont,Caledonia County,44.327445,-72.170037,Farmers Market,location_farmers_markets
41051,Oregon,Multnomah County,45.583224,-122.68679,Farmers Market,location_farmers_markets
41051,Oregon,Multnomah County,45.557097,-122.65898,Farmers Market,location_farmers_markets
41051,Oregon,Multnomah County,45.4813183,-122.56858,Farmers Market,location_farmers_markets
41051,Oregon,Multnomah County,45.512348,-122.68483,Farmers Market,location_farmers_markets
41051,Oregon,Multnomah County,45.517125,-122.68223,Farmers Market,location_farmers_markets
9011,Connecticut,New London County,41.573913,-71.865502,Farmers Market,location_farmers_markets
42017,Pennsylvania,Bucks County,40.240829,-74.839997,Farmers Market,location_farmers_markets
37181,North Carolina,Vance County,36.3378971,-78.424401,Farmers Market,location_farmers_markets
18177,Indiana,Wayne County,39.829996,-84.893377,Farmers Market,location_farmers_markets
53035,Washington,Kitsap County,47.574253,-122.62886,Farmers Market,location_farmers_markets
19043,Iowa,Clayton County,42.782433,-91.095446,Farmers Market,location_farmers_markets
12001,Florida,Alachua County,29.62549,-82.39552,Farmers Market,location_farmers_markets
35017,New Mexico,Grant County,32.774517,-108.27618,Farmers Market,location_farmers_markets
36041,New York,Hamilton County,43.782397,-74.270529,Farmers Market,location_farmers_markets
29159,Missouri,Pettis County,38.698011,-93.255481,Farmers Market,location_farmers_markets
9009,Connecticut,New Haven County,41.2735586,-73.021058,Farmers Market,location_farmers_markets
13091,Georgia,Dodge County,32.20079,-83.176305,Farmers Market,location_farmers_markets
20091,Kansas,Johnson County,38.812999,-94.925777,Farmers Market,location_farmers_markets
26159,Michigan,Van Buren County,42.219637,-86.048868,Farmers Market,location_farmers_markets
19011,Iowa,Benton County,42.223981,-91.873662,Farmers Market,location_farmers_markets
54037,West Virginia,Jefferson County,39.289073,-77.858454,Farmers Market,location_farmers_markets
12053,Florida,Hernando County,28.654639,-82.449304,Farmers Market,location_farmers_markets
29163,Missouri,Pike County,39.441188,-91.062659,Farmers Market,location_farmers_markets
12019,Florida,Clay County,30.165484,-81.701664,Farmers Market,location_farmers_markets
18035,Indiana,Delaware County,40.1883942,-85.410675,Farmers Market,location_farmers_markets
45087,South Carolina,Union County,34.716023,-81.614994,Farmers Market,location_farmers_markets
26139,Michigan,Ottawa County,42.8677383,-85.865455,Farmers Market,location_farmers_markets
11001,District of Columbia,District of Columbia,38.931518,-77.038675,Farmers Market,location_farmers_markets
36017,New York,Chenango County,42.531632,-75.523641,Farmers Market,location_farmers_markets
13233,Georgia,Polk County,33.997669,-85.053094,Farmers Market,location_farmers_markets
34019,New Jersey,Hunterdon County,40.505223,-74.871267,Farmers Market,location_farmers_markets
55109,Wisconsin,St. Croix County,44.966999,-92.370763,Farmers Market,location_farmers_markets
36015,New York,Chemung County,42.088757,-76.794875,Farmers Market,location_farmers_markets
27041,Minnesota,Douglas County,45.890762,-95.375902,Farmers Market,location_farmers_markets
45041,South Carolina,Florence County,34.198789,-79.773582,Farmers Market,location_farmers_markets
48309,Texas,McLennan County,31.55682,-97.132941,Farmers Market,location_farmers_markets
18097,Indiana,Marion County,39.793698,-86.247542,Farmers Market,location_farmers_markets
12086,Florida,Miami-Dade County,25.787138,-80.189855,Farmers Market,location_farmers_markets
47093,Tennessee,Knox County,35.965659,-83.910506,Farmers Market,location_farmers_markets
25025,Massachusetts,Suffolk County,42.286072,-71.130709,Farmers Market,location_farmers_markets
20021,Kansas,Cherokee County,37.171861,-94.831459,Farmers Market,location_farmers_markets
13291,Georgia,Union County,34.886298,-83.950669,Farmers Market,location_farmers_markets
21073,Kentucky,Franklin County,38.201613,-84.88021,Farmers Market,location_farmers_markets
37133,North Carolina,Onslow County,34.782418,-77.49326,Farmers Market,location_farmers_markets
53033,Washington,King County,47.741553,-122.34945,Farmers Market,location_farmers_markets
5051,Arkansas,Garland County,34.504886,-93.050943,Farmers Market,location_farmers_markets
54059,West Virginia,Mingo County,37.674029,-82.277984,Farmers Market,location_farmers_markets
26005,Michigan,Allegan County,42.44491,-85.643297,Farmers Market,location_farmers_markets
47093,Tennessee,Knox County,35.96565,-83.910507,Farmers Market,location_farmers_markets
56033,Wyoming,Sheridan County,44.760524,-106.94832,Farmers Market,location_farmers_markets
29097,Missouri,Jasper County,37.087883,-94.502691,Farmers Market,location_farmers_markets
17089,Illinois,Kane County,42.036328,-88.282543,Farmers Market,location_farmers_markets
17031,Illinois,Cook County,41.837551,-87.681844,Farmers Market,location_farmers_markets
39049,Ohio,Franklin County,40.123435,-82.913324,Farmers Market,location_farmers_markets
55115,Wisconsin,Shawano County,44.777707,-88.612868,Farmers Market,location_farmers_markets
42069,Pennsylvania,Lackawanna County,41.422523,-75.662496,Farmers Market,location_farmers_markets
48469,Texas,Victoria County,28.821562,-97.000968,Farmers Market,location_farmers_markets
39153,Ohio,Summit County,41.168794,-81.452156,Farmers Market,location_farmers_markets
48201,Texas,Harris County,29.548702,-95.150682,Farmers Market,location_farmers_markets
5115,Arkansas,Pope County,35.280402,-93.135468,Farmers Market,location_farmers_markets
11001,District of Columbia,District of Columbia,38.934817,-77.058379,Farmers Market,location_farmers_markets
39103,Ohio,Medina County,41.028681,-81.732318,Farmers Market,location_farmers_markets
42091,Pennsylvania,Montgomery County,40.234201,-75.277496,Farmers Market,location_farmers_markets
6037,California,Los Angeles County,34.094113,-118.35143,Farmers Market,location_farmers_markets
39061,Ohio,Hamilton County,39.23161,-84.54095,Farmers Market,location_farmers_markets
26111,Michigan,Midland County,43.609016,-84.236727,Farmers Market,location_farmers_markets
18163,Indiana,Vanderburgh County,37.972884,-87.568349,Farmers Market,location_farmers_markets
39061,Ohio,Hamilton County,39.163947,-84.539984,Farmers Market,location_farmers_markets
55079,Wisconsin,Milwaukee County,42.899242,-87.917781,Farmers Market,location_farmers_markets
2122,Alaska,Kenai Peninsula Borough,60.49304,-151.06758,Farmers Market,location_farmers_markets
20001,Kansas,Allen County,37.927427,-95.400669,Farmers Market,location_farmers_markets
20001,Kansas,Allen County,37.927427,-95.400669,Farmers Market,location_farmers_markets
27049,Minnesota,Goodhue County,44.403334,-92.624672,Farmers Market,location_farmers_markets
37031,North Carolina,Carteret County,34.68261,-77.083526,Farmers Market,location_farmers_markets
47001,Tennessee,Anderson County,36.017239,-84.251024,Farmers Market,location_farmers_markets
39045,Ohio,Fairfield County,39.712631,-82.603853,Farmers Market,location_farmers_markets
33011,New Hampshire,Hillsborough County,42.938268,-71.525849,Farmers Market,location_farmers_markets
34021,New Jersey,Mercer County,40.3494,-74.79688,Farmers Market,location_farmers_markets
42129,Pennsylvania,Westmoreland County,40.430121,-79.696788,Farmers Market,location_farmers_markets
39103,Ohio,Medina County,41.134636,-81.869513,Farmers Market,location_farmers_markets
42041,Pennsylvania,Cumberland County,40.201689,-77.189254,Farmers Market,location_farmers_markets
31023,Nebraska,Butler County,41.264759,-97.129955,Farmers Market,location_farmers_markets
21161,Kentucky,Mason County,38.615073,-83.80842,Farmers Market,location_farmers_markets
22009,Louisiana,Avoyelles Parish,31.12742,-92.066002,Farmers Market,location_farmers_markets
24047,Maryland,Worcester County,38.325383,-75.219388,Farmers Market,location_farmers_markets
51680,Virginia,Lynchburg city,37.411517,-79.140379,Farmers Market,location_farmers_markets
25017,Massachusetts,Middlesex County,42.641166,-71.312805,Farmers Market,location_farmers_markets
6071,California,San Bernardino County,34.13576,-116.05894,Farmers Market,location_farmers_markets
51009,Virginia,Amherst County,37.583162,-79.048809,Farmers Market,location_farmers_markets
18105,Indiana,Monroe County,39.164192,-86.491053,Farmers Market,location_farmers_markets
55101,Wisconsin,Racine County,42.697348,-87.888847,Farmers Market,location_farmers_markets
25023,Massachusetts,Plymouth County,42.082799,-71.018866,Farmers Market,location_farmers_markets
34031,New Jersey,Passaic County,40.882225,-74.234683,Farmers Market,location_farmers_markets
6037,California,Los Angeles County,33.975922,-118.41662,Farmers Market,location_farmers_markets
6037,California,Los Angeles County,34.061784,-118.44653,Farmers Market,location_farmers_markets
6059,California,Orange County,33.694867,-117.92709,Farmers Market,location_farmers_markets
47093,Tennessee,Knox County,36.039471,-83.883624,Farmers Market,location_farmers_markets
39133,Ohio,Portage County,41.155218,-81.337712,Farmers Market,location_farmers_markets
51820,Virginia,Waynesboro city,38.068559,-78.885734,Farmers Market,location_farmers_markets
51015,Virginia,Augusta County,38.193744,-79.010219,Farmers Market,location_farmers_markets
25009,Massachusetts,Essex County,42.653616,-71.143138,Farmers Market,location_farmers_markets
21005,Kentucky,Anderson County,38.076447,-84.917629,Farmers Market,location_farmers_markets
21051,Kentucky,Clay County,37.009793,-83.526289,Farmers Market,location_farmers_markets
21129,Kentucky,Lee County,37.591129,-83.705633,Farmers Market,location_farmers_markets
6059,California,Orange County,33.791554,-117.85586,Farmers Market,location_farmers_markets
21185,Kentucky,Oldham County,38.407465,-85.379458,Farmers Market,location_farmers_markets
6037,California,Los Angeles County,34.110124,-118.1919,Farmers Market,location_farmers_markets
12131,Florida,Walton County,30.720266,-86.1137,Farmers Market,location_farmers_markets
6073,California,San Diego County,32.785209,-117.17056,Farmers Market,location_farmers_markets
6073,California,San Diego County,32.747817,-117.10152,Farmers Market,location_farmers_markets
6087,California,Santa Cruz County,36.910275,-121.75536,Farmers Market,location_farmers_markets
36073,New York,Orleans County,43.220102,-78.388368,Farmers Market,location_farmers_markets
6037,California,Los Angeles County,34.69773,-118.14251,Farmers Market,location_farmers_markets
51003,Virginia,Albemarle County,38.126837,-78.445556,Farmers Market,location_farmers_markets
36029,New York,Erie County,42.923862,-78.877625,Farmers Market,location_farmers_markets
34017,New Jersey,Hudson County,40.719659,-74.042428,Farmers Market,location_farmers_markets
47157,Tennessee,Shelby County,35.132038,-90.06008,Farmers Market,location_farmers_markets
25021,Massachusetts,Norfolk County,42.34219,-71.123782,Farmers Market,location_farmers_markets
32510,Nevada,Carson City,39.162841,-119.76816,Farmers Market,location_farmers_markets
37119,North Carolina,Mecklenburg County,35.20911,-80.860801,Farmers Market,location_farmers_markets
20139,Kansas,Osage County,38.777419,-95.556782,Farmers Market,location_farmers_markets
55025,Wisconsin,Dane County,43.076385,-89.470022,Farmers Market,location_farmers_markets
6083,California,Santa Barbara County,34.700679,-120.46622,Farmers Market,location_farmers_markets
35017,New Mexico,Grant County,32.787733,-108.24248,Farmers Market,location_farmers_markets
6037,California,Los Angeles County,34.117828,-118.26015,Farmers Market,location_farmers_markets
6037,California,Los Angeles County,34.005326,-118.25679,Farmers Market,location_farmers_markets
6037,California,Los Angeles County,34.008706,-118.33542,Farmers Market,location_farmers_markets
6037,California,Los Angeles County,34.076409,-118.25827,Farmers Market,location_farmers_markets
6037,California,Los Angeles County,34.099639,-118.32819,Farmers Market,location_farmers_markets
4025,Arizona,Yavapai County,34.739119,-111.90859,Farmers Market,location_farmers_markets
53071,Washington,Walla Walla County,46.041708,-118.37784,Farmers Market,location_farmers_markets
37055,North Carolina,Dare County,35.854615,-75.645391,Farmers Market,location_farmers_markets
37099,North Carolina,Jackson County,35.301188,-83.18569,Farmers Market,location_farmers_markets
13097,Georgia,Douglas County,33.749649,-84.750061,Farmers Market,location_farmers_markets
48201,Texas,Harris County,29.93294,-95.269976,Farmers Market,location_farmers_markets
39151,Ohio,Stark County,40.892548,-81.409572,Farmers Market,location_farmers_markets
42029,Pennsylvania,Chester County,39.842787,-75.705331,Farmers Market,location_farmers_markets
26163,Michigan,Wayne County,42.319173,-83.380778,Farmers Market,location_farmers_markets
13245,Georgia,Richmond County,33.387808,-82.11834,Farmers Market,location_farmers_markets
48201,Texas,Harris County,29.676944,-95.477537,Farmers Market,location_farmers_markets
41051,Oregon,Multnomah County,45.477581,-122.6928,Farmers Market,location_farmers_markets
72031,Puerto Rico,Carolina Municipio,18.431395,-66.011273,Farmers Market,location_farmers_markets
12086,Florida,Miami-Dade County,25.747026,-80.212735,Farmers Market,location_farmers_markets
18109,Indiana,Morgan County,39.422141,-86.420904,Farmers Market,location_farmers_markets
37081,North Carolina,Guilford County,36.069019,-79.828293,Farmers Market,location_farmers_markets
26105,Michigan,Mason County,43.955713,-86.447744,Farmers Market,location_farmers_markets
25021,Massachusetts,Norfolk County,42.181987,-70.941897,Farmers Market,location_farmers_markets
18029,Indiana,Dearborn County,39.018037,-85.059414,Farmers Market,location_farmers_markets
36007,New York,Broome County,42.129759,-75.904648,Farmers Market,location_farmers_markets
4025,Arizona,Yavapai County,34.557395,-112.4828,Farmers Market,location_farmers_markets
15001,Hawaii,Hawaii County,20.017794,-155.66266,Farmers Market,location_farmers_markets
18137,Indiana,Ripley County,39.298852,-85.221859,Farmers Market,location_farmers_markets
54079,West Virginia,Putnam County,38.440335,-81.995042,Farmers Market,location_farmers_markets
50013,Vermont,Grand Isle County,44.661841,-73.323048,Farmers Market,location_farmers_markets
37135,North Carolina,Orange County,35.910781,-79.077607,Farmers Market,location_farmers_markets
18177,Indiana,Wayne County,39.825813,-84.900398,Farmers Market,location_farmers_markets
25013,Massachusetts,Hampden County,42.119742,-72.751662,Farmers Market,location_farmers_markets
48201,Texas,Harris County,29.975941,-95.194557,Farmers Market,location_farmers_markets
48201,Texas,Harris County,29.957574,-95.188057,Farmers Market,location_farmers_markets
22033,Louisiana,East Baton Rouge Parish,30.45195,-91.185787,Farmers Market,location_farmers_markets
41003,Oregon,Benton County,44.63664,-123.17882,Farmers Market,location_farmers_markets
55131,Wisconsin,Washington County,43.309792,-88.171891,Farmers Market,location_farmers_markets
31145,Nebraska,Red Willow County,40.199476,-100.63187,Farmers Market,location_farmers_markets
33001,New Hampshire,Belknap County,43.425347,-71.332318,Farmers Market,location_farmers_markets
27081,Minnesota,Lincoln County,44.508647,-96.426422,Farmers Market,location_farmers_markets
26073,Michigan,Isabella County,43.607074,-84.780178,Farmers Market,location_farmers_markets
26073,Michigan,Isabella County,43.604433,-84.776052,Farmers Market,location_farmers_markets
8123,Colorado,Weld County,40.424001,-104.6891,Farmers Market,location_farmers_markets
8069,Colorado,Larimer County,40.586073,-105.08019,Farmers Market,location_farmers_markets
12071,Florida,Lee County,26.564457,-81.954459,Farmers Market,location_farmers_markets
36081,New York,Queens County,40.7308,-73.773482,Farmers Market,location_farmers_markets
17163,Illinois,St. Clair County,38.591615,-89.908925,Farmers Market,location_farmers_markets
53011,Washington,Clark County,45.615372,-122.49377,Farmers Market,location_farmers_markets
42101,Pennsylvania,Philadelphia County,39.950045,-75.170843,Farmers Market,location_farmers_markets
25025,Massachusetts,Suffolk County,42.374945,-71.039467,Farmers Market,location_farmers_markets
42101,Pennsylvania,Philadelphia County,39.929934,-75.163171,Farmers Market,location_farmers_markets
42101,Pennsylvania,Philadelphia County,39.953276,-75.194883,Farmers Market,location_farmers_markets
42101,Pennsylvania,Philadelphia County,39.94994,-75.156213,Farmers Market,location_farmers_markets
42101,Pennsylvania,Philadelphia County,40.046156,-75.196253,Farmers Market,location_farmers_markets
42101,Pennsylvania,Philadelphia County,40.037308,-75.221221,Farmers Market,location_farmers_markets
42091,Pennsylvania,Montgomery County,40.153501,-75.225298,Farmers Market,location_farmers_markets
42101,Pennsylvania,Philadelphia County,40.06776,-75.196931,Farmers Market,location_farmers_markets
42091,Pennsylvania,Montgomery County,40.021168,-75.317067,Farmers Market,location_farmers_markets
42101,Pennsylvania,Philadelphia County,39.950039,-75.170836,Farmers Market,location_farmers_markets
42045,Pennsylvania,Delaware County,39.901671,-75.348771,Farmers Market,location_farmers_markets
42045,Pennsylvania,Delaware County,39.917838,-75.385551,Farmers Market,location_farmers_markets
17111,Illinois,McHenry County,42.310266,-88.435654,Farmers Market,location_farmers_markets
42101,Pennsylvania,Philadelphia County,39.927056,-75.151276,Farmers Market,location_farmers_markets
17031,Illinois,Cook County,41.915854,-87.633865,Farmers Market,location_farmers_markets
17031,Illinois,Cook County,41.880039,-87.650439,Farmers Market,location_farmers_markets
10005,Delaware,Sussex County,38.538397,-75.056515,Farmers Market,location_farmers_markets
20045,Kansas,Douglas County,38.96859,-95.23448,Farmers Market,location_farmers_markets
20045,Kansas,Douglas County,38.963018,-95.235986,Farmers Market,location_farmers_markets
8059,Colorado,Jefferson County,39.611904,-105.09573,Farmers Market,location_farmers_markets
8035,Colorado,Douglas County,39.547023,-104.99968,Farmers Market,location_farmers_markets
18105,Indiana,Monroe County,39.138753,-86.559788,Farmers Market,location_farmers_markets
36011,New York,Cayuga County,42.744684,-76.699995,Farmers Market,location_farmers_markets
18107,Indiana,Montgomery County,40.040652,-86.903732,Farmers Market,location_farmers_markets
18107,Indiana,Montgomery County,40.04604,-86.896007,Farmers Market,location_farmers_markets
29103,Missouri,Knox County,40.167824,-92.172403,Farmers Market,location_farmers_markets
29055,Missouri,Crawford County,37.967138,-91.358368,Farmers Market,location_farmers_markets
29055,Missouri,Crawford County,37.966076,-91.359291,Farmers Market,location_farmers_markets
39017,Ohio,Butler County,39.510915,-84.741544,Farmers Market,location_farmers_markets
22071,Louisiana,Orleans Parish,30.030672,-89.975013,Farmers Market,location_farmers_markets
53033,Washington,King County,47.667512,-122.3845,Farmers Market,location_farmers_markets
53033,Washington,King County,47.612616,-122.29575,Farmers Market,location_farmers_markets
53033,Washington,King County,47.663924,-122.33335,Farmers Market,location_farmers_markets
39049,Ohio,Franklin County,39.97423,-82.875408,Farmers Market,location_farmers_markets
39035,Ohio,Cuyahoga County,41.479328,-81.690301,Farmers Market,location_farmers_markets
39139,Ohio,Richland County,40.766123,-82.523336,Farmers Market,location_farmers_markets
6037,California,Los Angeles County,34.044973,-118.37983,Farmers Market,location_farmers_markets
6037,California,Los Angeles County,34.024936,-118.39464,Farmers Market,location_farmers_markets
55059,Wisconsin,Kenosha County,42.587205,-87.819945,Farmers Market,location_farmers_markets
55059,Wisconsin,Kenosha County,42.584009,-87.819183,Farmers Market,location_farmers_markets
16047,Idaho,Gooding County,42.932194,-114.71252,Farmers Market,location_farmers_markets
19163,Iowa,Scott County,41.519748,-90.582083,Farmers Market,location_farmers_markets
49035,Utah,Salt Lake County,40.515537,-112.01503,Farmers Market,location_farmers_markets
17167,Illinois,Sangamon County,39.800581,-89.650662,Farmers Market,location_farmers_markets
26109,Michigan,Menominee County,45.107233,-87.604562,Farmers Market,location_farmers_markets
55075,Wisconsin,Marinette County,45.098174,-87.628231,Farmers Market,location_farmers_markets
44005,Rhode Island,Newport County,41.483658,-71.305831,Farmers Market,location_farmers_markets
44005,Rhode Island,Newport County,41.509139,-71.304641,Farmers Market,location_farmers_markets
39107,Ohio,Mercer County,40.549633,-84.582827,Farmers Market,location_farmers_markets
26163,Michigan,Wayne County,42.201917,-83.482812,Farmers Market,location_farmers_markets
44003,Rhode Island,Kent County,41.649602,-71.444335,Farmers Market,location_farmers_markets
44005,Rhode Island,Newport County,41.622867,-71.150045,Farmers Market,location_farmers_markets
48477,Texas,Washington County,30.2145775,-96.403458,Farmers Market,location_farmers_markets
44009,Rhode Island,Washington County,41.375089,-71.83172,Farmers Market,location_farmers_markets
55059,Wisconsin,Kenosha County,42.587189,-87.819902,Farmers Market,location_farmers_markets
13159,Georgia,Jasper County,33.304642,-83.683495,Farmers Market,location_farmers_markets
55025,Wisconsin,Dane County,43.128145,-89.362808,Farmers Market,location_farmers_markets
27115,Minnesota,Pine County,45.832364,-92.970689,Farmers Market,location_farmers_markets
19157,Iowa,Poweshiek County,41.743189,-92.724057,Farmers Market,location_farmers_markets
18119,Indiana,Owen County,39.286121,-86.769484,Farmers Market,location_farmers_markets
17111,Illinois,McHenry County,42.310266,-88.435654,Farmers Market,location_farmers_markets
17111,Illinois,McHenry County,42.310266,-88.435654,Farmers Market,location_farmers_markets
18097,Indiana,Marion County,39.77586,-85.961539,Farmers Market,location_farmers_markets
18059,Indiana,Hancock County,39.791832,-85.75624,Farmers Market,location_farmers_markets
4007,Arizona,Gila County,34.229808,-111.3276,Farmers Market,location_farmers_markets
5081,Arkansas,Little River County,33.661403,-94.1176,Farmers Market,location_farmers_markets
5037,Arkansas,Cross County,35.223532,-90.786483,Farmers Market,location_farmers_markets
5001,Arkansas,Arkansas County,34.49802,-91.55237,Farmers Market,location_farmers_markets
5143,Arkansas,Washington County,36.18745,-94.11845,Farmers Market,location_farmers_markets
5045,Arkansas,Faulkner County,35.077695,-92.41257,Farmers Market,location_farmers_markets
5007,Arkansas,Benton County,36.181621,-94.541074,Farmers Market,location_farmers_markets
5055,Arkansas,Greene County,36.05557,-90.486623,Farmers Market,location_farmers_markets
5045,Arkansas,Faulkner County,35.088507,-92.440867,Farmers Market,location_farmers_markets
5007,Arkansas,Benton County,36.372637,-94.208458,Farmers Market,location_farmers_markets
5007,Arkansas,Benton County,36.419093,-94.446383,Farmers Market,location_farmers_markets
5039,Arkansas,Dallas County,33.812858,-92.41424,Farmers Market,location_farmers_markets
18097,Indiana,Marion County,39.806671,-86.192041,Farmers Market,location_farmers_markets
5007,Arkansas,Benton County,36.332762,-94.116,Farmers Market,location_farmers_markets
39013,Ohio,Belmont County,40.014375,-80.74212,Farmers Market,location_farmers_markets
39013,Ohio,Belmont County,40.069884,-80.865892,Farmers Market,location_farmers_markets
25025,Massachusetts,Suffolk County,42.3313532,-71.076514,Farmers Market,location_farmers_markets
55005,Wisconsin,Barron County,45.402192,-91.844351,Farmers Market,location_farmers_markets
42055,Pennsylvania,Franklin County,40.151488,-77.766771,Farmers Market,location_farmers_markets
26099,Michigan,Macomb County,42.6958071,-82.932268,Farmers Market,location_farmers_markets
51830,Virginia,Williamsburg city,37.269293,-76.706717,Farmers Market,location_farmers_markets
20091,Kansas,Johnson County,39.017779,-94.805322,Farmers Market,location_farmers_markets
20091,Kansas,Johnson County,39.017779,-94.805322,Farmers Market,location_farmers_markets
18059,Indiana,Hancock County,39.726276,-85.91723,Farmers Market,location_farmers_markets
4021,Arizona,Pinal County,33.285146,-111.1103,Farmers Market,location_farmers_markets
39035,Ohio,Cuyahoga County,41.369164,-81.684217,Farmers Market,location_farmers_markets
39151,Ohio,Stark County,40.875871,-81.417769,Farmers Market,location_farmers_markets
39151,Ohio,Stark County,40.80065,-81.374888,Farmers Market,location_farmers_markets
20027,Kansas,Clay County,39.376936,-97.126471,Farmers Market,location_farmers_markets
39001,Ohio,Adams County,38.795296,-83.546357,Farmers Market,location_farmers_markets
20021,Kansas,Cherokee County,37.075194,-94.635517,Farmers Market,location_farmers_markets
5143,Arkansas,Washington County,36.175764,-94.232501,Farmers Market,location_farmers_markets
16055,Idaho,Kootenai County,47.944594,-116.7079,Farmers Market,location_farmers_markets
6071,California,San Bernardino County,34.206855,-117.10491,Farmers Market,location_farmers_markets
29097,Missouri,Jasper County,37.140206,-94.462592,Farmers Market,location_farmers_markets
55079,Wisconsin,Milwaukee County,43.061843,-87.939701,Farmers Market,location_farmers_markets
55079,Wisconsin,Milwaukee County,43.025865,-87.944924,Farmers Market,location_farmers_markets
36119,New York,Westchester County,41.135051,-73.793652,Farmers Market,location_farmers_markets
42125,Pennsylvania,Washington County,40.041867,-79.977907,Farmers Market,location_farmers_markets
29099,Missouri,Jefferson County,38.143674,-90.552205,Farmers Market,location_farmers_markets
34023,New Jersey,Middlesex County,40.541112,-74.363008,Farmers Market,location_farmers_markets
39047,Ohio,Fayette County,39.53886,-83.427938,Farmers Market,location_farmers_markets
4013,Arizona,Maricopa County,33.354527,-111.79094,Farmers Market,location_farmers_markets
17105,Illinois,Livingston County,40.880177,-88.629562,Farmers Market,location_farmers_markets
34027,New Jersey,Morris County,40.796595,-74.448694,Farmers Market,location_farmers_markets
48029,Texas,Bexar County,29.418102,-98.59179,Farmers Market,location_farmers_markets
25017,Massachusetts,Middlesex County,42.444009,-71.235394,Farmers Market,location_farmers_markets
48091,Texas,Comal County,29.699301,-98.115109,Farmers Market,location_farmers_markets
4019,Arizona,Pima County,32.285766,-110.94208,Farmers Market,location_farmers_markets
13121,Georgia,Fulton County,33.725504,-84.376724,Farmers Market,location_farmers_markets
13121,Georgia,Fulton County,33.772425,-84.364611,Farmers Market,location_farmers_markets
13121,Georgia,Fulton County,33.782208,-84.354177,Farmers Market,location_farmers_markets
4017,Arizona,Navajo County,34.146798,-109.97074,Farmers Market,location_farmers_markets
55079,Wisconsin,Milwaukee County,43.048733,-88.008791,Farmers Market,location_farmers_markets
20121,Kansas,Miami County,38.572307,-94.878291,Farmers Market,location_farmers_markets
48029,Texas,Bexar County,29.472403,-98.525142,Farmers Market,location_farmers_markets
48029,Texas,Bexar County,29.472403,-98.525142,Farmers Market,location_farmers_markets
48029,Texas,Bexar County,29.472403,-98.525142,Farmers Market,location_farmers_markets
48029,Texas,Bexar County,29.472403,-98.525142,Farmers Market,location_farmers_markets
48029,Texas,Bexar County,29.472403,-98.525142,Farmers Market,location_farmers_markets
48029,Texas,Bexar County,29.472403,-98.525142,Farmers Market,location_farmers_markets
27165,Minnesota,Watonwan County,43.9784291,-94.614044,Farmers Market,location_farmers_markets
42101,Pennsylvania,Philadelphia County,40.025446,-75.220985,Farmers Market,location_farmers_markets
18067,Indiana,Howard County,40.419151,-86.270804,Farmers Market,location_farmers_markets
42003,Pennsylvania,Allegheny County,40.425019,-79.86111,Farmers Market,location_farmers_markets
42011,Pennsylvania,Berks County,40.262329,-75.810113,Farmers Market,location_farmers_markets
16027,Idaho,Canyon County,43.666163,-116.68885,Farmers Market,location_farmers_markets
18047,Indiana,Franklin County,39.412804,-85.012083,Farmers Market,location_farmers_markets
10005,Delaware,Sussex County,38.772404,-75.147503,Farmers Market,location_farmers_markets
27025,Minnesota,Chisago County,45.510887,-92.982014,Farmers Market,location_farmers_markets
45009,South Carolina,Bamberg County,33.300136,-81.031222,Farmers Market,location_farmers_markets
46053,South Dakota,Gregory County,43.185042,-99.299066,Farmers Market,location_farmers_markets
41047,Oregon,Marion County,44.796453,-122.79192,Farmers Market,location_farmers_markets
8041,Colorado,El Paso County,39.014791,-104.70238,Farmers Market,location_farmers_markets
8041,Colorado,El Paso County,39.013991,-104.69826,Farmers Market,location_farmers_markets
8041,Colorado,El Paso County,39.029861,-104.70169,Farmers Market,location_farmers_markets
18157,Indiana,Tippecanoe County,40.418803,-86.891858,Farmers Market,location_farmers_markets
48453,Texas,Travis County,30.387094,-97.741448,Farmers Market,location_farmers_markets
48491,Texas,Williamson County,30.557966,-97.688209,Farmers Market,location_farmers_markets
15007,Hawaii,Kauai County,21.965378,-159.39557,Farmers Market,location_farmers_markets
40145,Oklahoma,Wagoner County,35.963528,-95.379596,Farmers Market,location_farmers_markets
49057,Utah,Weber County,41.220677,-111.97327,Farmers Market,location_farmers_markets
17089,Illinois,Kane County,41.851028,-88.306027,Farmers Market,location_farmers_markets
41051,Oregon,Multnomah County,45.514708,-122.65725,Farmers Market,location_farmers_markets
6071,California,San Bernardino County,34.032512,-117.04491,Farmers Market,location_farmers_markets
6053,California,Monterey County,36.675383,-121.65603,Farmers Market,location_farmers_markets
36071,New York,Orange County,41.49981,-74.011014,Farmers Market,location_farmers_markets
21037,Kentucky,Campbell County,39.06822,-84.444349,Farmers Market,location_farmers_markets
34013,New Jersey,Essex County,40.7881258,-74.248205,Farmers Market,location_farmers_markets
26163,Michigan,Wayne County,42.42637,-83.483407,Farmers Market,location_farmers_markets
26035,Michigan,Clare County,44.019859,-84.800573,Farmers Market,location_farmers_markets
25023,Massachusetts,Plymouth County,42.19847,-70.769256,Farmers Market,location_farmers_markets
42127,Pennsylvania,Wayne County,41.566626,-75.251698,Farmers Market,location_farmers_markets
42039,Pennsylvania,Crawford County,41.636919,-79.701982,Farmers Market,location_farmers_markets
41051,Oregon,Multnomah County,45.496936,-122.67104,Farmers Market,location_farmers_markets
50013,Vermont,Grand Isle County,44.7968758,-73.294874,Farmers Market,location_farmers_markets
18095,Indiana,Madison County,40.222745,-85.779261,Farmers Market,location_farmers_markets
39153,Ohio,Summit County,41.244993,-81.600093,Farmers Market,location_farmers_markets
45055,South Carolina,Kershaw County,34.243195,-80.606634,Farmers Market,location_farmers_markets
32031,Nevada,Washoe County,39.544248,-119.75339,Farmers Market,location_farmers_markets
9009,Connecticut,New Haven County,41.271879,-72.949946,Farmers Market,location_farmers_markets
21029,Kentucky,Bullitt County,37.9700281,-85.695776,Farmers Market,location_farmers_markets
6017,California,El Dorado County,38.731615,-120.82185,Farmers Market,location_farmers_markets
6017,California,El Dorado County,38.927079,-119.98204,Farmers Market,location_farmers_markets
6017,California,El Dorado County,38.651318,-121.06429,Farmers Market,location_farmers_markets
6017,California,El Dorado County,38.657829,-120.97361,Farmers Market,location_farmers_markets
6033,California,Lake County,39.043583,-122.91387,Farmers Market,location_farmers_markets
6033,California,Lake County,38.992994,-122.87531,Farmers Market,location_farmers_markets
29075,Missouri,Gentry County,40.247729,-94.333605,Farmers Market,location_farmers_markets
35001,New Mexico,Bernalillo County,35.075615,-106.64902,Farmers Market,location_farmers_markets
48201,Texas,Harris County,29.761952,-95.775167,Farmers Market,location_farmers_markets
6017,California,El Dorado County,38.840227,-120.87815,Farmers Market,location_farmers_markets
15009,Hawaii,Maui County,20.750751,-155.98694,Farmers Market,location_farmers_markets
34017,New Jersey,Hudson County,40.72781,-74.044847,Farmers Market,location_farmers_markets
37129,North Carolina,New Hanover County,34.20895,-77.860425,Farmers Market,location_farmers_markets
18039,Indiana,Elkhart County,41.687093,-85.970818,Farmers Market,location_farmers_markets
9003,Connecticut,Hartford County,41.842841,-72.55179,Farmers Market,location_farmers_markets
37183,North Carolina,Wake County,35.585512,-78.800147,Farmers Market,location_farmers_markets
53033,Washington,King County,47.518781,-122.35812,Farmers Market,location_farmers_markets
48157,Texas,Fort Bend County,29.533266,-95.543858,Farmers Market,location_farmers_markets
55061,Wisconsin,Kewaunee County,44.607438,-87.435983,Farmers Market,location_farmers_markets
32023,Nevada,Nye County,36.205326,-115.9979,Farmers Market,location_farmers_markets
26127,Michigan,Oceana County,43.559633,-86.347156,Farmers Market,location_farmers_markets
51067,Virginia,Franklin County,36.994866,-79.888073,Farmers Market,location_farmers_markets
17031,Illinois,Cook County,41.781896,-87.629595,Farmers Market,location_farmers_markets
17111,Illinois,McHenry County,42.232554,-88.335331,Farmers Market,location_farmers_markets
17077,Illinois,Jackson County,37.730073,-89.193194,Farmers Market,location_farmers_markets
17077,Illinois,Jackson County,37.731906,-89.247353,Farmers Market,location_farmers_markets
25009,Massachusetts,Essex County,42.520767,-70.894541,Farmers Market,location_farmers_markets
18141,Indiana,St. Joseph County,41.657676,-86.26681,Farmers Market,location_farmers_markets
24005,Maryland,Baltimore County,39.465227,-76.8297,Farmers Market,location_farmers_markets
48453,Texas,Travis County,30.300107,-97.703135,Farmers Market,location_farmers_markets
53075,Washington,Whitman County,46.729751,-117.17404,Farmers Market,location_farmers_markets
17161,Illinois,Rock Island County,41.51278,-90.576384,Farmers Market,location_farmers_markets
51770,Virginia,Roanoke city,37.271606,-79.939064,Farmers Market,location_farmers_markets
18077,Indiana,Jefferson County,38.737406,-85.382985,Farmers Market,location_farmers_markets
41051,Oregon,Multnomah County,45.551352,-122.56801,Farmers Market,location_farmers_markets
47149,Tennessee,Rutherford County,35.845982,-86.392158,Farmers Market,location_farmers_markets
41007,Oregon,Clatsop County,46.188719,-123.83015,Farmers Market,location_farmers_markets
23031,Maine,York County,43.269956,-70.86243,Farmers Market,location_farmers_markets
19153,Iowa,Polk County,41.612479,-93.68471,Farmers Market,location_farmers_markets
17031,Illinois,Cook County,42.05062,-87.686152,Farmers Market,location_farmers_markets
18129,Indiana,Posey County,38.12899,-87.936384,Farmers Market,location_farmers_markets
34027,New Jersey,Morris County,40.897787,-74.707004,Farmers Market,location_farmers_markets
48183,Texas,Gregg County,32.528217,-94.8938,Farmers Market,location_farmers_markets
41067,Oregon,Washington County,45.520653,-123.11204,Farmers Market,location_farmers_markets
41067,Oregon,Washington County,45.521314,-123.05516,Farmers Market,location_farmers_markets
20037,Kansas,Crawford County,37.418249,-94.703397,Farmers Market,location_farmers_markets
8013,Colorado,Boulder County,39.962418,-105.50892,Farmers Market,location_farmers_markets
48453,Texas,Travis County,30.26766,-97.747306,Farmers Market,location_farmers_markets
48453,Texas,Travis County,30.230977,-97.807494,Farmers Market,location_farmers_markets
6097,California,Sonoma County,38.495737,-122.75197,Farmers Market,location_farmers_markets
6097,California,Sonoma County,38.503197,-122.99878,Farmers Market,location_farmers_markets
17181,Illinois,Union County,37.533392,-89.254353,Farmers Market,location_farmers_markets
72069,Puerto Rico,Humacao Municipio,18.088831,-65.797119,Farmers Market,location_farmers_markets
48121,Texas,Denton County,33.213317,-97.136334,Farmers Market,location_farmers_markets
6073,California,San Diego County,32.801659,-116.96048,Farmers Market,location_farmers_markets
12083,Florida,Marion County,29.106489,-82.257895,Farmers Market,location_farmers_markets
39049,Ohio,Franklin County,39.965067,-82.950712,Farmers Market,location_farmers_markets
29031,Missouri,Cape Girardeau County,37.302782,-89.519952,Farmers Market,location_farmers_markets
13121,Georgia,Fulton County,33.793194,-84.356113,Farmers Market,location_farmers_markets
17107,Illinois,Logan County,40.154175,-89.385624,Farmers Market,location_farmers_markets
16057,Idaho,Latah County,46.736826,-116.77598,Farmers Market,location_farmers_markets
17031,Illinois,Cook County,41.883908,-87.705713,Farmers Market,location_farmers_markets
41007,Oregon,Clatsop County,45.993667,-123.91986,Farmers Market,location_farmers_markets
32019,Nevada,Lyon County,39.594402,-119.24733,Farmers Market,location_farmers_markets
18045,Indiana,Fountain County,40.137063,-87.39709,Farmers Market,location_farmers_markets
39045,Ohio,Fairfield County,39.886046,-82.754075,Farmers Market,location_farmers_markets
18089,Indiana,Lake County,41.444077,-87.468144,Farmers Market,location_farmers_markets
6111,California,Ventura County,34.342681,-119.08404,Farmers Market,location_farmers_markets
5119,Arkansas,Pulaski County,34.776925,-92.556803,Farmers Market,location_farmers_markets
5091,Arkansas,Miller County,33.430713,-94.029739,Farmers Market,location_farmers_markets
40135,Oklahoma,Sequoyah County,35.534732,-94.80361,Farmers Market,location_farmers_markets
17015,Illinois,Carroll County,42.102271,-89.832636,Farmers Market,location_farmers_markets
29510,Missouri,St. Louis city,38.674084,-90.218914,Farmers Market,location_farmers_markets
41043,Oregon,Linn County,44.635052,-123.10609,Farmers Market,location_farmers_markets
41003,Oregon,Benton County,44.564828,-123.25824,Farmers Market,location_farmers_markets
5129,Arkansas,Searcy County,35.911945,-92.632893,Farmers Market,location_farmers_markets
53067,Washington,Thurston County,46.853829,-122.86037,Farmers Market,location_farmers_markets
48061,Texas,Cameron County,26.189375,-97.694079,Farmers Market,location_farmers_markets
12021,Florida,Collier County,26.045266,-81.698398,Farmers Market,location_farmers_markets
25015,Massachusetts,Hampshire County,42.265213,-72.669332,Farmers Market,location_farmers_markets
17093,Illinois,Kendall County,41.684774,-88.351584,Farmers Market,location_farmers_markets
31159,Nebraska,Seward County,40.907721,-97.098509,Farmers Market,location_farmers_markets
18097,Indiana,Marion County,39.767371,-86.171313,Farmers Market,location_farmers_markets
39061,Ohio,Hamilton County,39.139569,-84.442416,Farmers Market,location_farmers_markets
44001,Rhode Island,Bristol County,41.725289,-71.28193,Farmers Market,location_farmers_markets
44007,Rhode Island,Providence County,41.848902,-71.579083,Farmers Market,location_farmers_markets
56045,Wyoming,Weston County,43.849469,-104.18498,Farmers Market,location_farmers_markets
44007,Rhode Island,Providence County,41.818333,-71.37757,Farmers Market,location_farmers_markets
44007,Rhode Island,Providence County,41.799956,-71.356584,Farmers Market,location_farmers_markets
19113,Iowa,Linn County,42.044309,-91.580645,Farmers Market,location_farmers_markets
17197,Illinois,Will County,41.488007,-87.867562,Farmers Market,location_farmers_markets
39123,Ohio,Ottawa County,41.512209,-82.941236,Farmers Market,location_farmers_markets
18097,Indiana,Marion County,39.849755,-86.258818,Farmers Market,location_farmers_markets
44005,Rhode Island,Newport County,41.509123,-71.304555,Farmers Market,location_farmers_markets
44005,Rhode Island,Newport County,41.509894,-71.30979,Farmers Market,location_farmers_markets
18045,Indiana,Fountain County,40.13712,-87.39697,Farmers Market,location_farmers_markets
47183,Tennessee,Weakley County,36.3430031,-88.850455,Farmers Market,location_farmers_markets
55059,Wisconsin,Kenosha County,42.587876,-87.820499,Farmers Market,location_farmers_markets
37189,North Carolina,Watauga County,36.2198305,-81.6931234,Farmers Market,location_farmers_markets
37189,North Carolina,Watauga County,36.2204478,-81.6887158,Farmers Market,location_farmers_markets
37135,North Carolina,Orange County,35.927587,-79.026717,Farmers Market,location_farmers_markets
27053,Minnesota,Hennepin County,44.8883623,-93.266024,Farmers Market,location_farmers_markets
27053,Minnesota,Hennepin County,44.876064,-93.278795,Farmers Market,location_farmers_markets
9001,Connecticut,Fairfield County,41.3961518,-73.4487846,Farmers Market,location_farmers_markets
21111,Kentucky,Jefferson County,38.2460179,-85.746515,Farmers Market,location_farmers_markets
53033,Washington,King County,47.744679,-121.98641,Farmers Market,location_farmers_markets
41027,Oregon,Hood River County,45.70978,-121.515977,Farmers Market,location_farmers_markets
44007,Rhode Island,Providence County,41.901787,-71.505011,Farmers Market,location_farmers_markets
12071,Florida,Lee County,26.434777,-81.8156127,Farmers Market,location_farmers_markets
53053,Washington,Pierce County,47.330952,-122.58127,Farmers Market,location_farmers_markets
13135,Georgia,Gwinnett County,33.859588,-84.081093,Farmers Market,location_farmers_markets
24023,Maryland,Garrett County,39.408747,-79.409554,Farmers Market,location_farmers_markets
6013,California,Contra Costa County,37.902666,-122.04047,Farmers Market,location_farmers_markets
6013,California,Contra Costa County,37.882764,-122.17454,Farmers Market,location_farmers_markets
10005,Delaware,Sussex County,38.746394,-75.150657,Farmers Market,location_farmers_markets
10005,Delaware,Sussex County,38.7700964,-75.1435337,Farmers Market,location_farmers_markets
26025,Michigan,Calhoun County,42.32009,-85.18515,Farmers Market,location_farmers_markets
26057,Michigan,Gratiot County,43.410742,-84.608462,Farmers Market,location_farmers_markets
48201,Texas,Harris County,29.6467189,-95.368292,Farmers Market,location_farmers_markets
22103,Louisiana,St. Tammany Parish,30.275994,-89.780754,Farmers Market,location_farmers_markets
18105,Indiana,Monroe County,39.149906,-86.539649,Farmers Market,location_farmers_markets
6041,California,Marin County,38.107536,-122.57874,Farmers Market,location_farmers_markets
6041,California,Marin County,37.9853196,-122.5905814,Farmers Market,location_farmers_markets
6097,California,Sonoma County,38.31433,-122.48205,Farmers Market,location_farmers_markets
6097,California,Sonoma County,38.434379,-122.68939,Farmers Market,location_farmers_markets
6097,California,Sonoma County,38.2420797,-122.6302082,Farmers Market,location_farmers_markets
6097,California,Sonoma County,38.231796,-122.63679,Farmers Market,location_farmers_markets
6097,California,Sonoma County,38.252337,-122.63089,Farmers Market,location_farmers_markets
6097,California,Sonoma County,38.326544,-122.70729,Farmers Market,location_farmers_markets
6097,California,Sonoma County,38.349284,-122.70394,Farmers Market,location_farmers_markets
36083,New York,Rensselaer County,42.7316427,-73.6916048,Farmers Market,location_farmers_markets
48113,Texas,Dallas County,32.8248108,-96.7034198,Farmers Market,location_farmers_markets
48113,Texas,Dallas County,32.835725,-96.751083,Farmers Market,location_farmers_markets
17111,Illinois,McHenry County,42.168577,-88.424435,Farmers Market,location_farmers_markets
20021,Kansas,Cherokee County,37.074792,-94.640914,Farmers Market,location_farmers_markets
19067,Iowa,Floyd County,43.068022,-92.6776165,Farmers Market,location_farmers_markets
51013,Virginia,Arlington County,38.8897553,-77.0840474,Farmers Market,location_farmers_markets
5007,Arkansas,Benton County,36.1828276,-94.5408272,Farmers Market,location_farmers_markets
41003,Oregon,Benton County,44.5682522,-123.3133643,Farmers Market,location_farmers_markets
6097,California,Sonoma County,38.430669,-122.728721,Farmers Market,location_farmers_markets
41039,Oregon,Lane County,43.7972757,-123.06096,Farmers Market,location_farmers_markets
17031,Illinois,Cook County,41.8277856,-87.820102,Farmers Market,location_farmers_markets
29019,Missouri,Boone County,38.958293,-92.364624,Farmers Market,location_farmers_markets
48157,Texas,Fort Bend County,29.690226,-95.888475,Farmers Market,location_farmers_markets
17113,Illinois,McLean County,40.480014,-88.994107,Farmers Market,location_farmers_markets
51760,Virginia,Richmond city,37.5380571,-77.405887,Farmers Market,location_farmers_markets
13115,Georgia,Floyd County,34.1332366,-85.3086334,Farmers Market,location_farmers_markets
22079,Louisiana,Rapides Parish,31.294467,-92.466488,Farmers Market,location_farmers_markets
19191,Iowa,Winneshiek County,43.301618,-91.78475,Farmers Market,location_farmers_markets
39049,Ohio,Franklin County,40.083073,-82.798908,Farmers Market,location_farmers_markets
39049,Ohio,Franklin County,40.083073,-82.798908,Farmers Market,location_farmers_markets
50015,Vermont,Lamoille County,44.5588028,-72.5778415,Farmers Market,location_farmers_markets
11001,District of Columbia,District of Columbia,38.9302925,-77.0327462,Farmers Market,location_farmers_markets
11001,District of Columbia,District of Columbia,38.9004805,-77.0505776,Farmers Market,location_farmers_markets
11001,District of Columbia,District of Columbia,38.9007086,-76.9883903,Farmers Market,location_farmers_markets
24031,Maryland,Montgomery County,38.9974686,-77.0245554,Farmers Market,location_farmers_markets
12001,Florida,Alachua County,29.6613472,-82.3284448,Farmers Market,location_farmers_markets
11001,District of Columbia,District of Columbia,38.9323776,-76.994985,Farmers Market,location_farmers_markets
51059,Virginia,Fairfax County,38.8714011,-77.2307258,Farmers Market,location_farmers_markets
11001,District of Columbia,District of Columbia,38.9013863,-77.0190138,Farmers Market,location_farmers_markets
51059,Virginia,Fairfax County,38.880203,-77.3013443,Farmers Market,location_farmers_markets
51059,Virginia,Fairfax County,38.9242303,-77.3581045,Farmers Market,location_farmers_markets
11001,District of Columbia,District of Columbia,38.9112925,-77.045201,Farmers Market,location_farmers_markets
26069,Michigan,Iosco County,44.380388,-83.804474,Farmers Market,location_farmers_markets
50025,Vermont,Windham County,43.0841926,-72.7118174,Farmers Market,location_farmers_markets
27053,Minnesota,Hennepin County,45.0199925,-93.2374381,Farmers Market,location_farmers_markets
17095,Illinois,Knox County,40.9463203,-90.3653431,Farmers Market,location_farmers_markets
41009,Oregon,Columbia County,46.1053955,-123.2020058,Farmers Market,location_farmers_markets
6109,California,Tuolumne County,37.974304,-120.33807,Farmers Market,location_farmers_markets
44009,Rhode Island,Washington County,41.5695166,-71.5202252,Farmers Market,location_farmers_markets
19197,Iowa,Wright County,42.7320629,-93.7321638,Farmers Market,location_farmers_markets
26045,Michigan,Eaton County,42.646201,-84.647388,Farmers Market,location_farmers_markets
18043,Indiana,Floyd County,38.315002,-85.896109,Farmers Market,location_farmers_markets
48113,Texas,Dallas County,32.6845583,-96.8117815,Farmers Market,location_farmers_markets
13245,Georgia,Richmond County,33.4300318,-82.0517523,Farmers Market,location_farmers_markets
39049,Ohio,Franklin County,39.954491,-83.078781,Farmers Market,location_farmers_markets
51133,Virginia,Northumberland County,37.916391,-76.473204,Farmers Market,location_farmers_markets
4013,Arizona,Maricopa County,33.456252,-112.067838,Farmers Market,location_farmers_markets
10003,Delaware,New Castle County,39.749856,-75.5584068,Farmers Market,location_farmers_markets
25017,Massachusetts,Middlesex County,42.3801291,-71.0968209,Farmers Market,location_farmers_markets
26163,Michigan,Wayne County,42.251657,-83.175189,Farmers Market,location_farmers_markets
17097,Illinois,Lake County,42.287242,-87.954744,Farmers Market,location_farmers_markets
8067,Colorado,La Plata County,37.273063,-107.88275,Farmers Market,location_farmers_markets
24033,Maryland,Prince George's County,39.001146,-76.877296,Farmers Market,location_farmers_markets
55105,Wisconsin,Rock County,42.5000366,-89.0357147,Farmers Market,location_farmers_markets
27127,Minnesota,Redwood County,44.2250891,-95.4718667,Farmers Market,location_farmers_markets
53033,Washington,King County,47.2032716,-121.98701,Farmers Market,location_farmers_markets
27015,Minnesota,Brown County,44.2352899,-94.971343,Farmers Market,location_farmers_markets
27127,Minnesota,Redwood County,44.2317956,-95.2738752,Farmers Market,location_farmers_markets
27127,Minnesota,Redwood County,44.5411431,-95.1176726,Farmers Market,location_farmers_markets
42127,Pennsylvania,Wayne County,41.575017,-75.2577046,Farmers Market,location_farmers_markets
36119,New York,Westchester County,40.935696,-73.901287,Farmers Market,location_farmers_markets
42013,Pennsylvania,Blair County,40.429065,-78.394591,Farmers Market,location_farmers_markets
37183,North Carolina,Wake County,35.650573,-78.83619,Farmers Market,location_farmers_markets
17099,Illinois,LaSalle County,41.1219938,-88.8341998,Farmers Market,location_farmers_markets
55017,Wisconsin,Chippewa County,44.9536963,-91.1466753,Farmers Market,location_farmers_markets
19131,Iowa,Mitchell County,43.3795309,-92.9228267,Farmers Market,location_farmers_markets
26133,Michigan,Osceola County,43.9005752,-85.2580971,Farmers Market,location_farmers_markets
18095,Indiana,Madison County,40.005635,-85.744734,Farmers Market,location_farmers_markets
37119,North Carolina,Mecklenburg County,35.116444,-80.7215283,Farmers Market,location_farmers_markets
42021,Pennsylvania,Cambria County,40.3251584,-78.9174646,Farmers Market,location_farmers_markets
34017,New Jersey,Hudson County,40.7449895,-74.0431168,Farmers Market,location_farmers_markets
53015,Washington,Cowlitz County,45.9009396,-122.7470308,Farmers Market,location_farmers_markets
34025,New Jersey,Monmouth County,40.2162344,-74.0074815,Farmers Market,location_farmers_markets
34027,New Jersey,Morris County,40.806209,-74.4771069,Farmers Market,location_farmers_markets
34027,New Jersey,Morris County,40.7802559,-74.4457962,Farmers Market,location_farmers_markets
48491,Texas,Williamson County,30.545145,-97.5367532,Farmers Market,location_farmers_markets
26081,Michigan,Kent County,42.9407523,-85.6442779,Farmers Market,location_farmers_markets
36081,New York,Queens County,40.7643574,-73.9234619,Community Supported Agriculture (CSA),location_CSAs
18105,Indiana,Monroe County,39.249512,-86.576489,Community Supported Agriculture (CSA),location_CSAs
53057,Washington,Skagit County,48.4540321,-122.3901933,Community Supported Agriculture (CSA),location_CSAs
6073,California,San Diego County,33.2459178,-117.3164947,Community Supported Agriculture (CSA),location_CSAs
17049,Illinois,Effingham County,39.1200418,-88.5433829,Community Supported Agriculture (CSA),location_CSAs
36081,New York,Queens County,40.7817089,-73.9095222,Community Supported Agriculture (CSA),location_CSAs
55033,Wisconsin,Dunn County,44.8238288,-91.688474,Community Supported Agriculture (CSA),location_CSAs
17197,Illinois,Will County,41.7176414,-88.1432326,Community Supported Agriculture (CSA),location_CSAs
37033,North Carolina,Caswell County,36.2493046,-79.1908499,Community Supported Agriculture (CSA),location_CSAs
15003,Hawaii,Honolulu County,21.4407913,-158.1553682,Community Supported Agriculture (CSA),location_CSAs
51161,Virginia,Roanoke County,37.3257264,-79.952714,Community Supported Agriculture (CSA),location_CSAs
36001,New York,Albany County,42.7350969,-73.7622459,Community Supported Agriculture (CSA),location_CSAs
26005,Michigan,Allegan County,42.6091646,-85.9632444,Community Supported Agriculture (CSA),location_CSAs
26163,Michigan,Wayne County,42.2171623,-83.4783161,Community Supported Agriculture (CSA),location_CSAs
15007,Hawaii,Kauai County,22.2119444,-159.4122222,Community Supported Agriculture (CSA),location_CSAs
51173,Virginia,Smyth County,36.810076,-81.5117917,Community Supported Agriculture (CSA),location_CSAs
53063,Washington,Spokane County,48.0224009,-117.2412127,Community Supported Agriculture (CSA),location_CSAs
41047,Oregon,Marion County,44.8401312,-122.7733282,Community Supported Agriculture (CSA),location_CSAs
41005,Oregon,Clackamas County,45.3900817,-122.4726321,Community Supported Agriculture (CSA),location_CSAs
51015,Virginia,Augusta County,38.048826,-79.153621,Community Supported Agriculture (CSA),location_CSAs
34025,New Jersey,Monmouth County,40.163258,-74.1956682,Community Supported Agriculture (CSA),location_CSAs
34013,New Jersey,Essex County,40.730954,-74.1646977,Community Supported Agriculture (CSA),location_CSAs
36085,New York,Richmond County,40.546071,-74.1550306,Community Supported Agriculture (CSA),location_CSAs
6037,California,Los Angeles County,33.8094588,-118.2156522,Community Supported Agriculture (CSA),location_CSAs
49035,Utah,Salt Lake County,40.6618507,-111.8389726,Community Supported Agriculture (CSA),location_CSAs
53061,Washington,Snohomish County,47.8202222,-122.1717521,Community Supported Agriculture (CSA),location_CSAs
34037,New Jersey,Sussex County,40.9884211,-74.7638379,Community Supported Agriculture (CSA),location_CSAs
37135,North Carolina,Orange County,36.0667248,-79.131777,Community Supported Agriculture (CSA),location_CSAs
39165,Ohio,Warren County,39.3823184,-84.1990158,Community Supported Agriculture (CSA),location_CSAs
50009,Vermont,Essex County,44.6505495,-71.5797414,Community Supported Agriculture (CSA),location_CSAs
37037,North Carolina,Chatham County,35.7332423,-78.972946,Community Supported Agriculture (CSA),location_CSAs
49043,Utah,Summit County,40.6658215,-111.5138323,Community Supported Agriculture (CSA),location_CSAs
4013,Arizona,Maricopa County,33.5099687,-112.0942818,Community Supported Agriculture (CSA),location_CSAs
25017,Massachusetts,Middlesex County,42.4315059,-71.2081835,Community Supported Agriculture (CSA),location_CSAs
39001,Ohio,Adams County,38.752586,-83.588739,Community Supported Agriculture (CSA),location_CSAs
41039,Oregon,Lane County,44.0124209,-122.985547,Community Supported Agriculture (CSA),location_CSAs
37167,North Carolina,Stanly County,35.2234103,-80.3524828,Community Supported Agriculture (CSA),location_CSAs
12081,Florida,Manatee County,27.5481455,-82.5656672,Community Supported Agriculture (CSA),location_CSAs
21025,Kentucky,Breathitt County,37.5811203,-83.2524198,Community Supported Agriculture (CSA),location_CSAs
6073,California,San Diego County,33.3109519,-117.0067188,Community Supported Agriculture (CSA),location_CSAs
53011,Washington,Clark County,45.8560568,-122.6112523,Community Supported Agriculture (CSA),location_CSAs
39071,Ohio,Highland County,39.2022866,-83.611587,Community Supported Agriculture (CSA),location_CSAs
41005,Oregon,Clackamas County,45.430725,-122.4304739,Community Supported Agriculture (CSA),location_CSAs
44007,Rhode Island,Providence County,41.9902453,-71.6841833,Community Supported Agriculture (CSA),location_CSAs
37047,North Carolina,Columbus County,34.3157241,-78.2247211,Community Supported Agriculture (CSA),location_CSAs
55045,Wisconsin,Green County,42.785491,-89.4661862,Community Supported Agriculture (CSA),location_CSAs
34019,New Jersey,Hunterdon County,40.6876557,-74.8898415,Community Supported Agriculture (CSA),location_CSAs
34011,New Jersey,Cumberland County,39.4041714,-75.0910225,Community Supported Agriculture (CSA),location_CSAs
19103,Iowa,Johnson County,41.8072344,-91.4940604,Community Supported Agriculture (CSA),location_CSAs
27097,Minnesota,Morrison County,45.991867,-94.3490471,Community Supported Agriculture (CSA),location_CSAs
26017,Michigan,Bay County,43.5938389,-83.7912076,Community Supported Agriculture (CSA),location_CSAs
36119,New York,Westchester County,41.2709274,-73.7776336,Community Supported Agriculture (CSA),location_CSAs
47161,Tennessee,Stewart County,36.5104279,-87.6751608,Community Supported Agriculture (CSA),location_CSAs
6103,California,Tehama County,40.0212683,-122.1002666,Community Supported Agriculture (CSA),location_CSAs
33011,New Hampshire,Hillsborough County,42.8466713,-71.6690966,Community Supported Agriculture (CSA),location_CSAs
46011,South Dakota,Brookings County,44.4787292,-96.9277051,Community Supported Agriculture (CSA),location_CSAs
27137,Minnesota,St. Louis County,46.931371,-92.341584,Community Supported Agriculture (CSA),location_CSAs
49009,Utah,Daggett County,40.9880142,-109.7226498,Community Supported Agriculture (CSA),location_CSAs
16001,Idaho,Ada County,43.5735916,-116.4141505,Community Supported Agriculture (CSA),location_CSAs
17031,Illinois,Cook County,42.0387198,-88.1573269,Community Supported Agriculture (CSA),location_CSAs
39151,Ohio,Stark County,40.6983191,-81.3727765,Community Supported Agriculture (CSA),location_CSAs
51063,Virginia,Floyd County,36.9112443,-80.3200502,Community Supported Agriculture (CSA),location_CSAs
25011,Massachusetts,Franklin County,42.4617329,-72.5823361,Community Supported Agriculture (CSA),location_CSAs
33013,New Hampshire,Merrimack County,43.2494076,-71.725992,Community Supported Agriculture (CSA),location_CSAs
9005,Connecticut,Litchfield County,42.0103946,-73.355246,Community Supported Agriculture (CSA),location_CSAs
10001,Delaware,Kent County,39.1208836,-75.571609,Community Supported Agriculture (CSA),location_CSAs
17007,Illinois,Boone County,42.322216,-88.820853,Community Supported Agriculture (CSA),location_CSAs
28009,Mississippi,Benton County,34.8575164,-89.171127,Community Supported Agriculture (CSA),location_CSAs
51063,Virginia,Floyd County,37.0168601,-80.2116891,Community Supported Agriculture (CSA),location_CSAs
48085,Texas,Collin County,33.1207822,-96.579715,Community Supported Agriculture (CSA),location_CSAs
19049,Iowa,Dallas County,41.6186848,-94.1925601,Community Supported Agriculture (CSA),location_CSAs
6097,California,Sonoma County,38.4021359,-122.8238806,Community Supported Agriculture (CSA),location_CSAs
53057,Washington,Skagit County,48.3840089,-122.3259894,Community Supported Agriculture (CSA),location_CSAs
24023,Maryland,Garrett County,39.4078747,-79.406711,Community Supported Agriculture (CSA),location_CSAs
42085,Pennsylvania,Mercer County,41.2895447,-80.046143,Community Supported Agriculture (CSA),location_CSAs
19041,Iowa,Clay County,43.239793,-95.258313,Community Supported Agriculture (CSA),location_CSAs
26005,Michigan,Allegan County,42.455991,-85.746021,Community Supported Agriculture (CSA),location_CSAs
19121,Iowa,Madison County,41.32303316,-94.08430849,Community Supported Agriculture (CSA),location_CSAs
36097,New York,Schuyler County,42.4606582,-76.9658924,Community Supported Agriculture (CSA),location_CSAs
37081,North Carolina,Guilford County,36.000906,-79.6250554,Community Supported Agriculture (CSA),location_CSAs
48113,Texas,Dallas County,32.6845583,-96.8117815,Community Supported Agriculture (CSA),location_CSAs
36061,New York,New York County,40.7837072,-73.958162,Community Supported Agriculture (CSA),location_CSAs
16011,Idaho,Bingham County,43.36632,-112.1887832,Community Supported Agriculture (CSA),location_CSAs
42105,Pennsylvania,Potter County,41.9794041,-77.9462683,Community Supported Agriculture (CSA),location_CSAs
6079,California,San Luis Obispo County,35.2536502,-120.6660493,Community Supported Agriculture (CSA),location_CSAs
55049,Wisconsin,Iowa County,42.816494,-89.866,Community Supported Agriculture (CSA),location_CSAs
17099,Illinois,LaSalle County,41.1219938,-88.8341998,Community Supported Agriculture (CSA),location_CSAs
21111,Kentucky,Jefferson County,38.2642527,-85.7776772,Community Supported Agriculture (CSA),location_CSAs
34027,New Jersey,Morris County,40.806209,-74.4771069,Community Supported Agriculture (CSA),location_CSAs
48491,Texas,Williamson County,30.545145,-97.5367532,Community Supported Agriculture (CSA),location_CSAs
1067,Alabama,Henry County,31.647446,-85.10744,Meat processor,location_meat_processors
1067,Alabama,Henry County,31.74462,-85.13271,Meat processor,location_meat_processors
55073,Wisconsin,Marathon County,44.941988,-90.310939,Meat processor,location_meat_processors
55073,Wisconsin,Marathon County,44.944571,-90.311692,Meat processor,location_meat_processors
16023,Idaho,Butte County,43.94915,-112.8348,Meat processor,location_meat_processors
24025,Maryland,Harford County,39.538358,-76.217488,Meat processor,location_meat_processors
24025,Maryland,Harford County,39.491295,-76.195972,Meat processor,location_meat_processors
46013,South Dakota,Brown County,45.428164,-98.485721,Meat processor,location_meat_processors
51001,Virginia,Accomack County,37.731645,-75.65798,Meat processor,location_meat_processors
19069,Iowa,Franklin County,42.557169,-93.057614,Meat processor,location_meat_processors
13057,Georgia,Cherokee County,34.08185,-84.61677,Meat processor,location_meat_processors
26081,Michigan,Kent County,42.96158,-85.514981,Meat processor,location_meat_processors
17043,Illinois,DuPage County,41.922402,-88.025358,Meat processor,location_meat_processors
17043,Illinois,DuPage County,41.915838,-87.990142,Meat processor,location_meat_processors
17043,Illinois,DuPage County,41.919896,-88.032323,Meat processor,location_meat_processors
17043,Illinois,DuPage County,41.918457,-88.03411,Meat processor,location_meat_processors
17043,Illinois,DuPage County,41.917172,-88.02087,Meat processor,location_meat_processors
48029,Texas,Bexar County,29.371543,-98.28744,Meat processor,location_meat_processors
37059,North Carolina,Davie County,35.941983,-80.410205,Meat processor,location_meat_processors
47059,Tennessee,Greene County,36.19342,-82.72614,Meat processor,location_meat_processors
25013,Massachusetts,Hampden County,42.086128,-72.620405,Meat processor,location_meat_processors
72003,Puerto Rico,Aguada Municipio,18.369876,-67.162082,Meat processor,location_meat_processors
72005,Puerto Rico,Aguadilla Municipio,18.417516,-67.156277,Meat processor,location_meat_processors
72005,Puerto Rico,Aguadilla Municipio,18.458698,-67.149526,Meat processor,location_meat_processors
37091,North Carolina,Hertford County,36.288571,-76.983804,Meat processor,location_meat_processors
72009,Puerto Rico,Aibonito Municipio,18.140134,-66.266577,Meat processor,location_meat_processors
72009,Puerto Rico,Aibonito Municipio,18.139875,-66.266209,Meat processor,location_meat_processors
72009,Puerto Rico,Aibonito Municipio,18.139931,-66.267479,Meat processor,location_meat_processors
72009,Puerto Rico,Aibonito Municipio,18.156234,-66.28201,Meat processor,location_meat_processors
72009,Puerto Rico,Aibonito Municipio,18.127217,-66.311124,Meat processor,location_meat_processors
31017,Nebraska,Brown County,42.553674,-99.85223,Meat processor,location_meat_processors
53063,Washington,Spokane County,47.657262,-117.5776,Meat processor,location_meat_processors
39153,Ohio,Summit County,41.05953,-81.415653,Meat processor,location_meat_processors
42071,Pennsylvania,Lancaster County,40.155239,-76.19757,Meat processor,location_meat_processors
6001,California,Alameda County,37.72952,-122.2428,Meat processor,location_meat_processors
8003,Colorado,Alamosa County,37.464044,-105.875244,Meat processor,location_meat_processors
13095,Georgia,Dougherty County,31.558957,-84.11702,Meat processor,location_meat_processors
21053,Kentucky,Clinton County,36.758751,-85.1796,Meat processor,location_meat_processors
36001,New York,Albany County,42.691155,-73.782007,Meat processor,location_meat_processors
41043,Oregon,Linn County,44.61444,-123.1113,Meat processor,location_meat_processors
41043,Oregon,Linn County,44.602829,-123.097932,Meat processor,location_meat_processors
37167,North Carolina,Stanly County,35.319762,-80.254788,Meat processor,location_meat_processors
37167,North Carolina,Stanly County,35.337005,-80.210364,Meat processor,location_meat_processors
37167,North Carolina,Stanly County,35.342435,-80.302948,Meat processor,location_meat_processors
17027,Illinois,Clinton County,38.545283,-89.609186,Meat processor,location_meat_processors
27047,Minnesota,Freeborn County,43.626212,-93.354402,Meat processor,location_meat_processors
27047,Minnesota,Freeborn County,43.6793,-93.3475,Meat processor,location_meat_processors
27047,Minnesota,Freeborn County,43.623517,-93.351292,Meat processor,location_meat_processors
27047,Minnesota,Freeborn County,43.626212,-93.356811,Meat processor,location_meat_processors
27047,Minnesota,Freeborn County,43.62065,-93.354183,Meat processor,location_meat_processors
27047,Minnesota,Freeborn County,43.62353,-93.35957,Meat processor,location_meat_processors
1095,Alabama,Marshall County,34.271207,-86.196309,Meat processor,location_meat_processors
1095,Alabama,Marshall County,34.28175,-86.21542,Meat processor,location_meat_processors
1095,Alabama,Marshall County,34.253324,-86.17928,Meat processor,location_meat_processors
1095,Alabama,Marshall County,34.233462,-86.1703,Meat processor,location_meat_processors
1095,Alabama,Marshall County,34.251524,-86.23509,Meat processor,location_meat_processors
1095,Alabama,Marshall County,34.232729,-86.1681,Meat processor,location_meat_processors
1095,Alabama,Marshall County,34.260016,-86.20211,Meat processor,location_meat_processors
1095,Alabama,Marshall County,34.294594,-86.21819,Meat processor,location_meat_processors
17047,Illinois,Edwards County,38.380326,-88.032004,Meat processor,location_meat_processors
31011,Nebraska,Boone County,41.691891,-97.997486,Meat processor,location_meat_processors
36073,New York,Orleans County,43.241636,-78.197653,Meat processor,location_meat_processors
36073,New York,Orleans County,43.24125,-78.19772,Meat processor,location_meat_processors
35001,New Mexico,Bernalillo County,35.166495,-106.6292,Meat processor,location_meat_processors
35001,New Mexico,Bernalillo County,35.081721,-106.7151,Meat processor,location_meat_processors
35001,New Mexico,Bernalillo County,35.158027,-106.637584,Meat processor,location_meat_processors
35001,New Mexico,Bernalillo County,35.099484,-106.658665,Meat processor,location_meat_processors
35001,New Mexico,Bernalillo County,35.05069,-106.630915,Meat processor,location_meat_processors
35001,New Mexico,Bernalillo County,35.067994,-106.648917,Meat processor,location_meat_processors
35001,New Mexico,Bernalillo County,35.075274,-106.563935,Meat processor,location_meat_processors
35001,New Mexico,Bernalillo County,35.064965,-106.6546,Meat processor,location_meat_processors
35001,New Mexico,Bernalillo County,35.09225,-106.586365,Meat processor,location_meat_processors
35001,New Mexico,Bernalillo County,35.09602,-106.5332,Meat processor,location_meat_processors
35001,New Mexico,Bernalillo County,35.076478,-106.584192,Meat processor,location_meat_processors
35001,New Mexico,Bernalillo County,35.063276,-106.667744,Meat processor,location_meat_processors
36029,New York,Erie County,42.894259,-78.523329,Meat processor,location_meat_processors
1123,Alabama,Tallapoosa County,32.947104,-85.950288,Meat processor,location_meat_processors
1015,Alabama,Calhoun County,33.742618,-85.867696,Meat processor,location_meat_processors
21037,Kentucky,Campbell County,38.911035,-84.38513,Meat processor,location_meat_processors
27041,Minnesota,Douglas County,45.854786,-95.405973,Meat processor,location_meat_processors
51510,Virginia,Alexandria city,38.804433,-77.111599,Meat processor,location_meat_processors
51510,Virginia,Alexandria city,38.807702,-77.106373,Meat processor,location_meat_processors
51510,Virginia,Alexandria city,38.808504,-77.104345,Meat processor,location_meat_processors
51510,Virginia,Alexandria city,38.84327,-77.07482,Meat processor,location_meat_processors
51510,Virginia,Alexandria city,38.807945,-77.103127,Meat processor,location_meat_processors
36003,New York,Allegany County,42.266586,-77.775979,Meat processor,location_meat_processors
19109,Iowa,Kossuth County,43.079545,-94.223482,Meat processor,location_meat_processors
53033,Washington,King County,47.293118,-122.2473,Meat processor,location_meat_processors
6037,California,Los Angeles County,34.083438,-118.14691,Meat processor,location_meat_processors
42007,Pennsylvania,Beaver County,40.637212,-80.287648,Meat processor,location_meat_processors
42007,Pennsylvania,Beaver County,40.592345,-80.268564,Meat processor,location_meat_processors
42007,Pennsylvania,Beaver County,40.614174,-80.260678,Meat processor,location_meat_processors
26139,Michigan,Ottawa County,42.97592,-85.954114,Meat processor,location_meat_processors
34025,New Jersey,Monmouth County,40.174298,-74.608772,Meat processor,location_meat_processors
42077,Pennsylvania,Lehigh County,40.59149,-75.61571,Meat processor,location_meat_processors
42077,Pennsylvania,Lehigh County,40.566438,-75.601041,Meat processor,location_meat_processors
42077,Pennsylvania,Lehigh County,40.606715,-75.496999,Meat processor,location_meat_processors
42077,Pennsylvania,Lehigh County,40.624981,-75.44737,Meat processor,location_meat_processors
42077,Pennsylvania,Lehigh County,40.567188,-75.600054,Meat processor,location_meat_processors
37137,North Carolina,Pamlico County,35.142058,-76.78607,Meat processor,location_meat_processors
13005,Georgia,Bacon County,31.536507,-82.513913,Meat processor,location_meat_processors
13005,Georgia,Bacon County,31.537754,-82.44072,Meat processor,location_meat_processors
20197,Kansas,Wabaunsee County,39.011056,-96.289385,Meat processor,location_meat_processors
29107,Missouri,Lafayette County,39.095491,-93.545493,Meat processor,location_meat_processors
46073,South Dakota,Jerauld County,44.184372,-98.375727,Meat processor,location_meat_processors
17031,Illinois,Cook County,41.668794,-87.738907,Meat processor,location_meat_processors
17031,Illinois,Cook County,41.654868,-87.716032,Meat processor,location_meat_processors
17031,Illinois,Cook County,41.663863,-87.716889,Meat processor,location_meat_processors
17031,Illinois,Cook County,41.662071,-87.722834,Meat processor,location_meat_processors
17031,Illinois,Cook County,41.680002,-87.758765,Meat processor,location_meat_processors
36001,New York,Albany County,42.747853,-74.013802,Meat processor,location_meat_processors
36093,New York,Schenectady County,42.746883,-74.04696,Meat processor,location_meat_processors
19153,Iowa,Polk County,41.664363,-93.45571,Meat processor,location_meat_processors
19153,Iowa,Polk County,41.664599,-93.456123,Meat processor,location_meat_processors
42013,Pennsylvania,Blair County,40.51443,-78.397048,Meat processor,location_meat_processors
42013,Pennsylvania,Blair County,40.468811,-78.40356,Meat processor,location_meat_processors
40065,Oklahoma,Jackson County,34.634006,-99.294599,Meat processor,location_meat_processors
21227,Kentucky,Warren County,36.83878,-86.338773,Meat processor,location_meat_processors
48039,Texas,Brazoria County,29.42532,-95.247347,Meat processor,location_meat_processors
19095,Iowa,Iowa County,41.801599,-91.869961,Meat processor,location_meat_processors
48381,Texas,Randall County,35.072855,-101.9108,Meat processor,location_meat_processors
48375,Texas,Potter County,35.196414,-101.7165,Meat processor,location_meat_processors
48375,Texas,Potter County,35.221342,-101.787875,Meat processor,location_meat_processors
48375,Texas,Potter County,35.253561,-101.653615,Meat processor,location_meat_processors
48375,Texas,Potter County,35.229053,-101.817089,Meat processor,location_meat_processors
48375,Texas,Potter County,35.235142,-101.7232,Meat processor,location_meat_processors
51007,Virginia,Amelia County,37.46665,-77.95389,Meat processor,location_meat_processors
49049,Utah,Utah County,40.362426,-111.7924,Meat processor,location_meat_processors
13261,Georgia,Sumter County,32.115317,-84.196106,Meat processor,location_meat_processors
13261,Georgia,Sumter County,32.113094,-84.199655,Meat processor,location_meat_processors
13261,Georgia,Sumter County,32.115317,-84.196106,Meat processor,location_meat_processors
19169,Iowa,Story County,42.03014,-93.64404,Meat processor,location_meat_processors
39093,Ohio,Lorain County,41.418234,-82.19797,Meat processor,location_meat_processors
22105,Louisiana,Tangipahoa Parish,30.723184,-90.550055,Meat processor,location_meat_processors
36057,New York,Montgomery County,42.940792,-74.228317,Meat processor,location_meat_processors
30023,Montana,Deer Lodge County,46.129644,-112.950329,Meat processor,location_meat_processors
30023,Montana,Deer Lodge County,46.128997,-112.950927,Meat processor,location_meat_processors
6059,California,Orange County,33.86181,-117.909753,Meat processor,location_meat_processors
6059,California,Orange County,33.864463,-117.815194,Meat processor,location_meat_processors
6059,California,Orange County,33.834755,-117.9421,Meat processor,location_meat_processors
6059,California,Orange County,33.81599,-117.8817,Meat processor,location_meat_processors
6059,California,Orange County,33.857877,-117.860697,Meat processor,location_meat_processors
6059,California,Orange County,33.855407,-117.870408,Meat processor,location_meat_processors
6059,California,Orange County,33.861692,-117.909688,Meat processor,location_meat_processors
6059,California,Orange County,33.813415,-117.899318,Meat processor,location_meat_processors
6059,California,Orange County,33.856553,-117.838221,Meat processor,location_meat_processors
72011,Puerto Rico,Anasco Municipio,18.298978,-67.167941,Meat processor,location_meat_processors
2020,Alaska,Anchorage Municipality,61.164799,-149.8884,Meat processor,location_meat_processors
2020,Alaska,Anchorage Municipality,61.152529,-149.8641,Meat processor,location_meat_processors
2020,Alaska,Anchorage Municipality,61.181835,-149.8692,Meat processor,location_meat_processors
2020,Alaska,Anchorage Municipality,61.19354,-149.898,Meat processor,location_meat_processors
2020,Alaska,Anchorage Municipality,61.15224,-149.8761,Meat processor,location_meat_processors
2020,Alaska,Anchorage Municipality,61.146719,-149.878,Meat processor,location_meat_processors
2020,Alaska,Anchorage Municipality,61.135159,-149.8788,Meat processor,location_meat_processors
2020,Alaska,Anchorage Municipality,61.173602,-149.8779,Meat processor,location_meat_processors
2020,Alaska,Anchorage Municipality,61.167556,-149.8971,Meat processor,location_meat_processors
2020,Alaska,Anchorage Municipality,61.1732,-149.8941,Meat processor,location_meat_processors
36021,New York,Columbia County,42.067181,-73.569121,Meat processor,location_meat_processors
1039,Alabama,Covington County,31.324123,-86.507893,Meat processor,location_meat_processors
6089,California,Shasta County,40.491954,-122.361193,Meat processor,location_meat_processors
18095,Indiana,Madison County,40.093558,-85.673242,Meat processor,location_meat_processors
45007,South Carolina,Anderson County,34.6033,-82.69502,Meat processor,location_meat_processors
48003,Texas,Andrews County,32.321036,-102.5759,Meat processor,location_meat_processors
19153,Iowa,Polk County,41.69298,-93.58141,Meat processor,location_meat_processors
19153,Iowa,Polk County,41.716919,-93.59389,Meat processor,location_meat_processors
19153,Iowa,Polk County,41.715771,-93.593058,Meat processor,location_meat_processors
26161,Michigan,Washtenaw County,42.261175,-83.73053,Meat processor,location_meat_processors
26161,Michigan,Washtenaw County,42.332163,-83.75216,Meat processor,location_meat_processors
17181,Illinois,Union County,37.449453,-89.148241,Meat processor,location_meat_processors
27171,Minnesota,Wright County,45.259672,-94.118472,Meat processor,location_meat_processors
27171,Minnesota,Wright County,45.254992,-94.10063,Meat processor,location_meat_processors
27171,Minnesota,Wright County,45.25867,-94.109101,Meat processor,location_meat_processors
1015,Alabama,Calhoun County,33.619571,-85.77185,Meat processor,location_meat_processors
42075,Pennsylvania,Lebanon County,40.325444,-76.534616,Meat processor,location_meat_processors
47037,Tennessee,Davidson County,36.07213,-86.68329,Meat processor,location_meat_processors
40015,Oklahoma,Caddo County,34.897543,-98.354956,Meat processor,location_meat_processors
17085,Illinois,Jo Daviess County,42.50053,-90.09956,Meat processor,location_meat_processors
55087,Wisconsin,Outagamie County,44.267279,-88.448359,Meat processor,location_meat_processors
55087,Wisconsin,Outagamie County,44.272932,-88.419392,Meat processor,location_meat_processors
36103,New York,Suffolk County,40.93927,-72.619702,Meat processor,location_meat_processors
6037,California,Los Angeles County,34.101871,-118.007864,Meat processor,location_meat_processors
22013,Louisiana,Bienville Parish,32.559614,-92.942107,Meat processor,location_meat_processors
55121,Wisconsin,Trempealeau County,44.257713,-91.51084,Meat processor,location_meat_processors
6037,California,Los Angeles County,34.107121,-118.035243,Meat processor,location_meat_processors
39051,Ohio,Fulton County,41.520855,-84.318093,Meat processor,location_meat_processors
39051,Ohio,Fulton County,41.515826,-84.297799,Meat processor,location_meat_processors
27123,Minnesota,Ramsey County,45.055947,-93.149382,Meat processor,location_meat_processors
1083,Alabama,Limestone County,34.979905,-86.86603,Meat processor,location_meat_processors
72013,Puerto Rico,Arecibo Municipio,18.462373,-66.742848,Meat processor,location_meat_processors
72013,Puerto Rico,Arecibo Municipio,18.45279,-66.7465,Meat processor,location_meat_processors
36115,New York,Washington County,43.216178,-73.488122,Meat processor,location_meat_processors
20035,Kansas,Cowley County,37.104091,-97.048063,Meat processor,location_meat_processors
4013,Arizona,Maricopa County,33.366674,-112.7516,Meat processor,location_meat_processors
48439,Texas,Tarrant County,32.74618,-97.0678,Meat processor,location_meat_processors
48439,Texas,Tarrant County,32.683991,-97.080508,Meat processor,location_meat_processors
48439,Texas,Tarrant County,32.749996,-97.04593,Meat processor,location_meat_processors
48439,Texas,Tarrant County,32.720633,-97.048672,Meat processor,location_meat_processors
48439,Texas,Tarrant County,32.753903,-97.045252,Meat processor,location_meat_processors
53061,Washington,Snohomish County,48.14927,-122.1617,Meat processor,location_meat_processors
6031,California,Kings County,36.316382,-119.709342,Meat processor,location_meat_processors
42129,Pennsylvania,Westmoreland County,40.583825,-79.769119,Meat processor,location_meat_processors
17041,Illinois,Douglas County,39.66914,-88.471831,Meat processor,location_meat_processors
27051,Minnesota,Grant County,46.09297,-95.815997,Meat processor,location_meat_processors
37151,North Carolina,Randolph County,35.686067,-79.816418,Meat processor,location_meat_processors
37151,North Carolina,Randolph County,35.6833,-79.84411,Meat processor,location_meat_processors
37151,North Carolina,Randolph County,35.747574,-79.81175,Meat processor,location_meat_processors
37151,North Carolina,Randolph County,35.748585,-79.785459,Meat processor,location_meat_processors
37115,North Carolina,Madison County,35.796685,-82.681728,Meat processor,location_meat_processors
1027,Alabama,Clay County,33.284191,-85.81906,Meat processor,location_meat_processors
39005,Ohio,Ashland County,40.877255,-82.291115,Meat processor,location_meat_processors
39005,Ohio,Ashland County,40.886632,-82.302432,Meat processor,location_meat_processors
